{
"type": "FeatureCollection",
"name": "Banks",
"crs": { "type": "name", "properties": { "name": "urn:ogc:def:crs:OGC:1.3:CRS84" } },
"features": [
{ "type": "Feature", "properties": { "amenity": "bank", "short_name": null, "name": "Commercial Bank of Ceylon", "brand": "Commercial Bank of Ceylon", "atm": "yes", "alt_name": "Kohuwala Branch", "addr_city": "Kohuwala" }, "geometry": { "type": "Point", "coordinates": [ 79.8849608, 6.8663027 ] } },
{ "type": "Feature", "properties": { "amenity": "bank", "short_name": null, "name": "NSB", "brand": "NSB", "atm": null, "alt_name": null, "addr_city": "Piliyandala" }, "geometry": { "type": "Point", "coordinates": [ 79.9242797, 6.8010035 ] } },
{ "type": "Feature", "properties": { "amenity": "bank", "short_name": null, "name": "NTB Head Office", "brand": null, "atm": "yes", "alt_name": null, "addr_city": null }, "geometry": { "type": "Point", "coordinates": [ 79.8568591, 6.9206501 ] } },
{ "type": "Feature", "properties": { "amenity": "bank", "short_name": null, "name": "Seylan Bank", "brand": "Seylan Bank", "atm": null, "alt_name": null, "addr_city": null }, "geometry": { "type": "Point", "coordinates": [ 79.883922, 6.8872978 ] } },
{ "type": "Feature", "properties": { "amenity": "bank", "short_name": "NTB", "name": null, "brand": "Nations Trust Bank", "atm": "yes", "alt_name": null, "addr_city": "Thalawathugoda" }, "geometry": { "type": "Point", "coordinates": [ 79.9353451, 6.8771377 ] } },
{ "type": "Feature", "properties": { "amenity": "bank", "short_name": null, "name": "Bank of Ceylon", "brand": "Bank of Ceylon", "atm": "yes", "alt_name": null, "addr_city": null }, "geometry": { "type": "Point", "coordinates": [ 79.8574626, 6.9205318 ] } },
{ "type": "Feature", "properties": { "amenity": "bank", "short_name": null, "name": "Seylan Townhall", "brand": null, "atm": "yes", "alt_name": null, "addr_city": null }, "geometry": { "type": "Point", "coordinates": [ 79.8645946, 6.9167839 ] } },
{ "type": "Feature", "properties": { "amenity": "bank", "short_name": null, "name": "Seylan Bank", "brand": "Seylan Bank", "atm": "yes", "alt_name": null, "addr_city": "Borella" }, "geometry": { "type": "Point", "coordinates": [ 79.8760026, 6.9165044 ] } },
{ "type": "Feature", "properties": { "amenity": "bank", "short_name": null, "name": "Sampath Bank", "brand": "Sampath Bank", "atm": null, "alt_name": null, "addr_city": "Borella" }, "geometry": { "type": "Point", "coordinates": [ 79.8757838, 6.916414 ] } },
{ "type": "Feature", "properties": { "amenity": "bank", "short_name": null, "name": "HNB", "brand": "HNB", "atm": null, "alt_name": null, "addr_city": null }, "geometry": { "type": "Point", "coordinates": [ 79.8958134, 6.909951 ] } },
{ "type": "Feature", "properties": { "amenity": "bank", "short_name": null, "name": "Commercial Bank of Ceylon", "brand": "Commercial Bank of Ceylon", "atm": null, "alt_name": null, "addr_city": "Thalawathugoda" }, "geometry": { "type": "Point", "coordinates": [ 79.935075, 6.8760097 ] } },
{ "type": "Feature", "properties": { "amenity": "bank", "short_name": "HNB", "name": "Hatton National Bank", "brand": "Hatton National Bank", "atm": null, "alt_name": null, "addr_city": "Thalawathugoda" }, "geometry": { "type": "Point", "coordinates": [ 79.9360834, 6.8756601 ] } },
{ "type": "Feature", "properties": { "amenity": "bank", "short_name": null, "name": "Commercial Bank of Ceylon", "brand": "Commercial Bank of Ceylon", "atm": "yes", "alt_name": null, "addr_city": null }, "geometry": { "type": "Point", "coordinates": [ 79.8918809, 6.8745931 ] } },
{ "type": "Feature", "properties": { "amenity": "bank", "short_name": null, "name": "Seylan Bank", "brand": "Seylan Bank", "atm": "yes", "alt_name": null, "addr_city": "Thimbirigasyaya" }, "geometry": { "type": "Point", "coordinates": [ 79.8634608, 6.8905566 ] } },
{ "type": "Feature", "properties": { "amenity": "bank", "short_name": null, "name": "Commercial Bank of Ceylon", "brand": "Commercial Bank of Ceylon", "atm": null, "alt_name": null, "addr_city": "Colombo 07" }, "geometry": { "type": "Point", "coordinates": [ 79.8599119, 6.8978477 ] } },
{ "type": "Feature", "properties": { "amenity": "bank", "short_name": null, "name": "HSBC", "brand": "HSBC", "atm": null, "alt_name": null, "addr_city": "Bambalapitiya" }, "geometry": { "type": "Point", "coordinates": [ 79.8569663, 6.8962721 ] } },
{ "type": "Feature", "properties": { "amenity": "bank", "short_name": "HNB", "name": "Hatton National Bank", "brand": "Hatton National Bank", "atm": null, "alt_name": null, "addr_city": "Bambalapitiya" }, "geometry": { "type": "Point", "coordinates": [ 79.8578941, 6.8864566 ] } },
{ "type": "Feature", "properties": { "amenity": "bank", "short_name": null, "name": "CDB", "brand": null, "atm": null, "alt_name": null, "addr_city": null }, "geometry": { "type": "Point", "coordinates": [ 79.8609811, 6.9320917 ] } },
{ "type": "Feature", "properties": { "amenity": "bank", "short_name": null, "name": "People's Bank", "brand": null, "atm": "yes", "alt_name": null, "addr_city": "Colombo" }, "geometry": { "type": "Point", "coordinates": [ 79.847768, 6.9301484 ] } },
{ "type": "Feature", "properties": { "amenity": "bank", "short_name": null, "name": "Sampath Borella", "brand": null, "atm": null, "alt_name": null, "addr_city": null }, "geometry": { "type": "Point", "coordinates": [ 79.878604, 6.9139085 ] } },
{ "type": "Feature", "properties": { "amenity": "bank", "short_name": null, "name": "NTB", "brand": null, "atm": "yes", "alt_name": null, "addr_city": "Battaramulla" }, "geometry": { "type": "Point", "coordinates": [ 79.9206064, 6.8968291 ] } },
{ "type": "Feature", "properties": { "amenity": "bank", "short_name": null, "name": "HNB", "brand": "HNB", "atm": "yes", "alt_name": null, "addr_city": "Maharagama" }, "geometry": { "type": "Point", "coordinates": [ 79.9232068, 6.849679 ] } },
{ "type": "Feature", "properties": { "amenity": "bank", "short_name": null, "name": "People's Bank", "brand": null, "atm": "yes", "alt_name": null, "addr_city": "Wijerama" }, "geometry": { "type": "Point", "coordinates": [ 79.9078382, 6.8587464 ] } },
{ "type": "Feature", "properties": { "amenity": "bank", "short_name": null, "name": "PABC", "brand": null, "atm": null, "alt_name": null, "addr_city": "Kirulapone" }, "geometry": { "type": "Point", "coordinates": [ 79.8762104, 6.8781693 ] } },
{ "type": "Feature", "properties": { "amenity": "bank", "short_name": null, "name": "Peoples Bank", "brand": null, "atm": "yes", "alt_name": null, "addr_city": null }, "geometry": { "type": "Point", "coordinates": [ 79.8632296, 6.9164951 ] } },
{ "type": "Feature", "properties": { "amenity": "bank", "short_name": null, "name": "BOC", "brand": "BOC", "atm": "yes", "alt_name": null, "addr_city": "Malabe" }, "geometry": { "type": "Point", "coordinates": [ 79.9553496, 6.9042244 ] } },
{ "type": "Feature", "properties": { "amenity": "bank", "short_name": null, "name": "Sampath Bank", "brand": "Sampath Bank", "atm": "yes", "alt_name": null, "addr_city": "Malabe" }, "geometry": { "type": "Point", "coordinates": [ 79.9557858, 6.9027021 ] } },
{ "type": "Feature", "properties": { "amenity": "bank", "short_name": null, "name": "Seylan Bank", "brand": "Seylan Bank", "atm": null, "alt_name": null, "addr_city": null }, "geometry": { "type": "Point", "coordinates": [ 79.9554691, 6.9035792 ] } },
{ "type": "Feature", "properties": { "amenity": "bank", "short_name": null, "name": "HNB", "brand": "HNB", "atm": null, "alt_name": null, "addr_city": "Malabe" }, "geometry": { "type": "Point", "coordinates": [ 79.9573722, 6.9033168 ] } },
{ "type": "Feature", "properties": { "amenity": "bank", "short_name": null, "name": "Vallibel Finance", "brand": null, "atm": null, "alt_name": null, "addr_city": null }, "geometry": { "type": "Point", "coordinates": [ 79.9289811, 6.8919556 ] } },
{ "type": "Feature", "properties": { "amenity": "bank", "short_name": null, "name": "BOC", "brand": "BOC", "atm": null, "alt_name": null, "addr_city": "Narahenpita" }, "geometry": { "type": "Point", "coordinates": [ 79.8769346, 6.8964177 ] } },
{ "type": "Feature", "properties": { "amenity": "bank", "short_name": null, "name": "Nations Trust Bank", "brand": null, "atm": "yes", "alt_name": "NTB", "addr_city": "Nawala" }, "geometry": { "type": "Point", "coordinates": [ 79.8870233, 6.8856549 ] } },
{ "type": "Feature", "properties": { "amenity": "bank", "short_name": null, "name": "People's Bank", "brand": null, "atm": "yes", "alt_name": null, "addr_city": "Thimbirigasyaya" }, "geometry": { "type": "Point", "coordinates": [ 79.863739, 6.8908128 ] } },
{ "type": "Feature", "properties": { "amenity": "bank", "short_name": null, "name": "NSB", "brand": "NSB", "atm": "yes", "alt_name": null, "addr_city": "Colombo 04" }, "geometry": { "type": "Point", "coordinates": [ 79.8595435, 6.8799399 ] } },
{ "type": "Feature", "properties": { "amenity": "bank", "short_name": null, "name": "NSB", "brand": "NSB", "atm": null, "alt_name": null, "addr_city": "Colombo 03" }, "geometry": { "type": "Point", "coordinates": [ 79.8504217, 6.9109249 ] } },
{ "type": "Feature", "properties": { "amenity": "bank", "short_name": null, "name": "HNB", "brand": "HNB", "atm": null, "alt_name": null, "addr_city": "Kohuwala" }, "geometry": { "type": "Point", "coordinates": [ 79.8843932, 6.8675759 ] } },
{ "type": "Feature", "properties": { "amenity": "bank", "short_name": null, "name": "HSBC", "brand": "HSBC", "atm": null, "alt_name": null, "addr_city": "Kohuwala" }, "geometry": { "type": "Point", "coordinates": [ 79.8805884, 6.8696064 ] } },
{ "type": "Feature", "properties": { "amenity": "bank", "short_name": null, "name": "Sampath Bank", "brand": "Sampath Bank", "atm": "yes", "alt_name": null, "addr_city": "Colombo 2" }, "geometry": { "type": "Point", "coordinates": [ 79.8534229, 6.9198604 ] } },
{ "type": "Feature", "properties": { "amenity": "bank", "short_name": null, "name": "HNB", "brand": "HNB", "atm": "yes", "alt_name": null, "addr_city": null }, "geometry": { "type": "Point", "coordinates": [ 79.8499767, 6.9190752 ] } },
{ "type": "Feature", "properties": { "amenity": "bank", "short_name": null, "name": "HSBC", "brand": "HSBC", "atm": "yes", "alt_name": null, "addr_city": null }, "geometry": { "type": "Point", "coordinates": [ 79.8502073, 6.9191472 ] } },
{ "type": "Feature", "properties": { "amenity": "bank", "short_name": null, "name": "Sampath Bank", "brand": "Sampath Bank", "atm": "yes", "alt_name": null, "addr_city": null }, "geometry": { "type": "Point", "coordinates": [ 79.8502368, 6.9192084 ] } },
{ "type": "Feature", "properties": { "amenity": "bank", "short_name": null, "name": "HNB", "brand": "HNB", "atm": "yes", "alt_name": null, "addr_city": "Colombo 07" }, "geometry": { "type": "Point", "coordinates": [ 79.8633715, 6.9169798 ] } },
{ "type": "Feature", "properties": { "amenity": "bank", "short_name": null, "name": null, "brand": null, "atm": null, "alt_name": null, "addr_city": null }, "geometry": { "type": "Point", "coordinates": [ 79.8681916, 6.8285195 ] } },
{ "type": "Feature", "properties": { "amenity": "bank", "short_name": null, "name": "DFCC Vardhana Bank", "brand": null, "atm": "yes", "alt_name": null, "addr_city": null }, "geometry": { "type": "Point", "coordinates": [ 79.8568852, 6.914329 ] } },
{ "type": "Feature", "properties": { "amenity": "bank", "short_name": null, "name": "Peoples Bank", "brand": null, "atm": null, "alt_name": null, "addr_city": null }, "geometry": { "type": "Point", "coordinates": [ 79.862033, 6.9241529 ] } },
{ "type": "Feature", "properties": { "amenity": "bank", "short_name": null, "name": "Sampath Bank", "brand": "Sampath Bank", "atm": "yes", "alt_name": null, "addr_city": null }, "geometry": { "type": "Point", "coordinates": [ 79.849581, 6.932717 ] } },
{ "type": "Feature", "properties": { "amenity": "bank", "short_name": null, "name": "Peoples Bank", "brand": null, "atm": null, "alt_name": null, "addr_city": null }, "geometry": { "type": "Point", "coordinates": [ 79.851595, 6.9321759 ] } },
{ "type": "Feature", "properties": { "amenity": "bank", "short_name": null, "name": "Seylan Bank", "brand": "Seylan Bank", "atm": "yes", "alt_name": null, "addr_city": "Kottawa" }, "geometry": { "type": "Point", "coordinates": [ 79.9634489, 6.841889 ] } },
{ "type": "Feature", "properties": { "amenity": "bank", "short_name": null, "name": "Commercial Bank of Ceylon", "brand": "Commercial Bank of Ceylon", "atm": "yes", "alt_name": "Wellawatte Branch", "addr_city": "Wellawatte - Colombo 06" }, "geometry": { "type": "Point", "coordinates": [ 79.8620187, 6.8716964 ] } },
{ "type": "Feature", "properties": { "amenity": "bank", "short_name": null, "name": "Union Bank", "brand": null, "atm": null, "alt_name": null, "addr_city": null }, "geometry": { "type": "Point", "coordinates": [ 79.8548777, 6.9120486 ] } },
{ "type": "Feature", "properties": { "amenity": "bank", "short_name": null, "name": "NDB", "brand": null, "atm": null, "alt_name": null, "addr_city": null }, "geometry": { "type": "Point", "coordinates": [ 79.8571951, 6.9134758 ] } },
{ "type": "Feature", "properties": { "amenity": "bank", "short_name": null, "name": "NTB Nawam Mawatha", "brand": null, "atm": "yes", "alt_name": null, "addr_city": null }, "geometry": { "type": "Point", "coordinates": [ 79.8507625, 6.9192376 ] } },
{ "type": "Feature", "properties": { "amenity": "bank", "short_name": null, "name": "NDB Nawam Mawatha", "brand": null, "atm": "yes", "alt_name": null, "addr_city": null }, "geometry": { "type": "Point", "coordinates": [ 79.8510816, 6.9187318 ] } },
{ "type": "Feature", "properties": { "amenity": "bank", "short_name": null, "name": "Seylan Kalubowila", "brand": null, "atm": null, "alt_name": null, "addr_city": null }, "geometry": { "type": "Point", "coordinates": [ 79.8783191, 6.8662933 ] } },
{ "type": "Feature", "properties": { "amenity": "bank", "short_name": null, "name": "Seylan Bank", "brand": "Seylan Bank", "atm": "yes", "alt_name": null, "addr_city": "Nugegoda" }, "geometry": { "type": "Point", "coordinates": [ 79.8914505, 6.8687559 ] } },
{ "type": "Feature", "properties": { "amenity": "bank", "short_name": null, "name": "NDB Galle Face", "brand": null, "atm": null, "alt_name": null, "addr_city": null }, "geometry": { "type": "Point", "coordinates": [ 79.8483828, 6.9200325 ] } },
{ "type": "Feature", "properties": { "amenity": "bank", "short_name": null, "name": "Food City", "brand": null, "atm": null, "alt_name": null, "addr_city": "Nugegoda" }, "geometry": { "type": "Point", "coordinates": [ 79.8900792, 6.8726463 ] } },
{ "type": "Feature", "properties": { "amenity": "bank", "short_name": null, "name": "Peoples Bank Pitakotte", "brand": null, "atm": null, "alt_name": null, "addr_city": null }, "geometry": { "type": "Point", "coordinates": [ 79.9013969, 6.8838984 ] } },
{ "type": "Feature", "properties": { "amenity": "bank", "short_name": null, "name": "HSBC", "brand": "HSBC", "atm": "yes", "alt_name": null, "addr_city": "Colombo 10" }, "geometry": { "type": "Point", "coordinates": [ 79.8643424, 6.9179391 ] } },
{ "type": "Feature", "properties": { "amenity": "bank", "short_name": null, "name": "Standard Chartered", "brand": "Standard Chartered", "atm": "yes", "alt_name": null, "addr_city": "Colombo 10" }, "geometry": { "type": "Point", "coordinates": [ 79.8637765, 6.9177412 ] } },
{ "type": "Feature", "properties": { "amenity": "bank", "short_name": null, "name": "Standard Chartered", "brand": "Standard Chartered", "atm": null, "alt_name": null, "addr_city": null }, "geometry": { "type": "Point", "coordinates": [ 79.916887, 6.9022175 ] } },
{ "type": "Feature", "properties": { "amenity": "bank", "short_name": null, "name": "N T B", "brand": null, "atm": null, "alt_name": null, "addr_city": "Maharagama" }, "geometry": { "type": "Point", "coordinates": [ 79.9239152, 6.849309 ] } },
{ "type": "Feature", "properties": { "amenity": "bank", "short_name": null, "name": "Commercial Bank of Ceylon", "brand": "Commercial Bank of Ceylon", "atm": "yes", "alt_name": null, "addr_city": "Maharagama" }, "geometry": { "type": "Point", "coordinates": [ 79.922735, 6.8503209 ] } },
{ "type": "Feature", "properties": { "amenity": "bank", "short_name": null, "name": "State Mortgage Bank", "brand": null, "atm": null, "alt_name": null, "addr_city": null }, "geometry": { "type": "Point", "coordinates": [ 79.8502714, 6.9098448 ] } },
{ "type": "Feature", "properties": { "amenity": "bank", "short_name": null, "name": "NTB", "brand": null, "atm": null, "alt_name": null, "addr_city": null }, "geometry": { "type": "Point", "coordinates": [ 79.8570736, 6.9130892 ] } },
{ "type": "Feature", "properties": { "amenity": "bank", "short_name": null, "name": "Sampath Bank", "brand": "Sampath Bank", "atm": "yes", "alt_name": null, "addr_city": null }, "geometry": { "type": "Point", "coordinates": [ 79.8585347, 6.9524294 ] } },
{ "type": "Feature", "properties": { "amenity": "bank", "short_name": null, "name": null, "brand": null, "atm": null, "alt_name": null, "addr_city": null }, "geometry": { "type": "Point", "coordinates": [ 79.8679277, 6.9250498 ] } },
{ "type": "Feature", "properties": { "amenity": "bank", "short_name": null, "name": null, "brand": null, "atm": null, "alt_name": null, "addr_city": null }, "geometry": { "type": "Point", "coordinates": [ 79.8539677, 6.9411805 ] } },
{ "type": "Feature", "properties": { "amenity": "bank", "short_name": null, "name": null, "brand": null, "atm": null, "alt_name": null, "addr_city": null }, "geometry": { "type": "Point", "coordinates": [ 79.8499659, 6.9348436 ] } },
{ "type": "Feature", "properties": { "amenity": "bank", "short_name": null, "name": "Seylan Bank", "brand": null, "atm": "yes", "alt_name": null, "addr_city": "Boralesgamuwa" }, "geometry": { "type": "Point", "coordinates": [ 79.9018174, 6.8405863 ] } },
{ "type": "Feature", "properties": { "amenity": "bank", "short_name": null, "name": "BOC", "brand": null, "atm": null, "alt_name": null, "addr_city": "Boralesgamuwa" }, "geometry": { "type": "Point", "coordinates": [ 79.9031944, 6.8412052 ] } },
{ "type": "Feature", "properties": { "amenity": "bank", "short_name": null, "name": "HNB", "brand": null, "atm": null, "alt_name": null, "addr_city": "Boralesgamuwa" }, "geometry": { "type": "Point", "coordinates": [ 79.9024755, 6.8410764 ] } },
{ "type": "Feature", "properties": { "amenity": "bank", "short_name": null, "name": "People's Bank", "brand": null, "atm": null, "alt_name": null, "addr_city": "Thalawathugoda" }, "geometry": { "type": "Point", "coordinates": [ 79.9359821, 6.8751689 ] } },
{ "type": "Feature", "properties": { "amenity": "bank", "short_name": null, "name": "Commercial Bank of Ceylon", "brand": "Commercial Bank of Ceylon", "atm": "yes", "alt_name": "Battaramulla Branch", "addr_city": "Battaramulla" }, "geometry": { "type": "Point", "coordinates": [ 79.9199701, 6.9022772 ] } },
{ "type": "Feature", "properties": { "amenity": "bank", "short_name": null, "name": "People's Bank", "brand": null, "atm": null, "alt_name": null, "addr_city": "Battaramulla" }, "geometry": { "type": "Point", "coordinates": [ 79.9200881, 6.902373 ] } },
{ "type": "Feature", "properties": { "amenity": "bank", "short_name": null, "name": "BOC", "brand": "BOC", "atm": "yes", "alt_name": null, "addr_city": "Battaramulla" }, "geometry": { "type": "Point", "coordinates": [ 79.9154962, 6.9021068 ] } },
{ "type": "Feature", "properties": { "amenity": "bank", "short_name": null, "name": "NDB", "brand": null, "atm": null, "alt_name": null, "addr_city": "Kohuwala" }, "geometry": { "type": "Point", "coordinates": [ 79.8857438, 6.8677228 ] } },
{ "type": "Feature", "properties": { "amenity": "bank", "short_name": null, "name": "Sampath Bank", "brand": "Sampath Bank", "atm": "yes", "alt_name": null, "addr_city": "Maharagama" }, "geometry": { "type": "Point", "coordinates": [ 79.9248165, 6.848578 ] } },
{ "type": "Feature", "properties": { "amenity": "bank", "short_name": null, "name": "Peoples Bank", "brand": null, "atm": "yes", "alt_name": null, "addr_city": null }, "geometry": { "type": "Point", "coordinates": [ 80.006029, 6.842796 ] } },
{ "type": "Feature", "properties": { "amenity": "bank", "short_name": null, "name": "Seylan Bank", "brand": "Seylan Bank", "atm": null, "alt_name": null, "addr_city": "Homagama" }, "geometry": { "type": "Point", "coordinates": [ 80.0047891, 6.8413449 ] } },
{ "type": "Feature", "properties": { "amenity": "bank", "short_name": "HNB", "name": "Hatton National Bank", "brand": "Hatton National Bank", "atm": null, "alt_name": null, "addr_city": null }, "geometry": { "type": "Point", "coordinates": [ 80.0048607, 6.8416777 ] } },
{ "type": "Feature", "properties": { "amenity": "bank", "short_name": null, "name": "Bank of Ceylon", "brand": "Bank of Ceylon", "atm": "yes", "alt_name": null, "addr_city": "Homagama" }, "geometry": { "type": "Point", "coordinates": [ 80.0056882, 6.8424045 ] } },
{ "type": "Feature", "properties": { "amenity": "bank", "short_name": "HNB", "name": "Hatton National Bank", "brand": "Hatton National Bank", "atm": null, "alt_name": null, "addr_city": null }, "geometry": { "type": "Point", "coordinates": [ 79.8521988, 6.9118553 ] } },
{ "type": "Feature", "properties": { "amenity": "bank", "short_name": null, "name": "Commercial Bank of Ceylon", "brand": "Commercial Bank of Ceylon", "atm": "yes", "alt_name": "Malabe Branch", "addr_city": "Malabe" }, "geometry": { "type": "Point", "coordinates": [ 79.9534768, 6.9046309 ] } },
{ "type": "Feature", "properties": { "amenity": "bank", "short_name": null, "name": "NSB", "brand": "NSB", "atm": "yes", "alt_name": null, "addr_city": "Malabe" }, "geometry": { "type": "Point", "coordinates": [ 79.953563, 6.9043069 ] } },
{ "type": "Feature", "properties": { "amenity": "bank", "short_name": "HNB", "name": "Hatton National Bank", "brand": "Hatton National Bank", "atm": "yes", "alt_name": "HNB", "addr_city": "Nawala" }, "geometry": { "type": "Point", "coordinates": [ 79.8870181, 6.886443 ] } },
{ "type": "Feature", "properties": { "amenity": "bank", "short_name": null, "name": "NDB - Nawala", "brand": null, "atm": "yes", "alt_name": null, "addr_city": null }, "geometry": { "type": "Point", "coordinates": [ 79.8892777, 6.8822188 ] } },
{ "type": "Feature", "properties": { "amenity": "bank", "short_name": null, "name": "HSBC", "brand": "HSBC", "atm": "yes", "alt_name": null, "addr_city": null }, "geometry": { "type": "Point", "coordinates": [ 79.8899282, 6.8814759 ] } },
{ "type": "Feature", "properties": { "amenity": "bank", "short_name": null, "name": "Commercial Bank of Ceylon", "brand": "Commercial Bank of Ceylon", "atm": "yes", "alt_name": "Nawala Branch", "addr_city": null }, "geometry": { "type": "Point", "coordinates": [ 79.8902963, 6.8811897 ] } },
{ "type": "Feature", "properties": { "amenity": "bank", "short_name": null, "name": "Sampath Bank", "brand": "Sampath Bank", "atm": "yes", "alt_name": null, "addr_city": null }, "geometry": { "type": "Point", "coordinates": [ 79.8747216, 6.893034 ] } },
{ "type": "Feature", "properties": { "amenity": "bank", "short_name": null, "name": "Commercial Bank of Ceylon", "brand": "Commercial Bank of Ceylon", "atm": "yes", "alt_name": null, "addr_city": null }, "geometry": { "type": "Point", "coordinates": [ 79.8748863, 6.8930116 ] } },
{ "type": "Feature", "properties": { "amenity": "bank", "short_name": null, "name": "Peoples Bank", "brand": null, "atm": "yes", "alt_name": null, "addr_city": "Piliyandala" }, "geometry": { "type": "Point", "coordinates": [ 79.9257181, 6.7999083 ] } },
{ "type": "Feature", "properties": { "amenity": "bank", "short_name": null, "name": "Seylan Bank", "brand": "Seylan Bank", "atm": null, "alt_name": null, "addr_city": "Maharagama" }, "geometry": { "type": "Point", "coordinates": [ 79.9308332, 6.8446797 ] } },
{ "type": "Feature", "properties": { "amenity": "bank", "short_name": null, "name": "HNB", "brand": "HNB", "atm": null, "alt_name": null, "addr_city": null }, "geometry": { "type": "Point", "coordinates": [ 79.862524, 6.9403618 ] } },
{ "type": "Feature", "properties": { "amenity": "bank", "short_name": null, "name": "Seylan Oldmoor Street", "brand": null, "atm": null, "alt_name": null, "addr_city": null }, "geometry": { "type": "Point", "coordinates": [ 79.8619795, 6.9400541 ] } },
{ "type": "Feature", "properties": { "amenity": "bank", "short_name": null, "name": "Pan Asia  Oldmorr Street", "brand": null, "atm": null, "alt_name": null, "addr_city": null }, "geometry": { "type": "Point", "coordinates": [ 79.8622763, 6.9399782 ] } },
{ "type": "Feature", "properties": { "amenity": "bank", "short_name": null, "name": "Union Bank Oldmoor Street", "brand": null, "atm": null, "alt_name": null, "addr_city": null }, "geometry": { "type": "Point", "coordinates": [ 79.8623701, 6.9400103 ] } },
{ "type": "Feature", "properties": { "amenity": "bank", "short_name": null, "name": "Sampath Bank", "brand": "Sampath Bank", "atm": "yes", "alt_name": null, "addr_city": "Thalawathugoda" }, "geometry": { "type": "Point", "coordinates": [ 79.9352946, 6.8776177 ] } },
{ "type": "Feature", "properties": { "amenity": "bank", "short_name": null, "name": "HNB", "brand": "HNB", "atm": "yes", "alt_name": null, "addr_city": null }, "geometry": { "type": "Point", "coordinates": [ 79.8675555, 6.8324776 ] } },
{ "type": "Feature", "properties": { "amenity": "bank", "short_name": null, "name": "Commercial Attidiya", "brand": null, "atm": null, "alt_name": null, "addr_city": null }, "geometry": { "type": "Point", "coordinates": [ 79.873196, 6.8199152 ] } },
{ "type": "Feature", "properties": { "amenity": "bank", "short_name": null, "name": "Sampath Bank", "brand": "Sampath Bank", "atm": "yes", "alt_name": null, "addr_city": null }, "geometry": { "type": "Point", "coordinates": [ 79.8710449, 6.8233451 ] } },
{ "type": "Feature", "properties": { "amenity": "bank", "short_name": null, "name": "Commercial Bank of Ceylon", "brand": "Commercial Bank of Ceylon", "atm": "yes", "alt_name": null, "addr_city": "Piliyandala" }, "geometry": { "type": "Point", "coordinates": [ 79.9267857, 6.7987417 ] } },
{ "type": "Feature", "properties": { "amenity": "bank", "short_name": null, "name": "HNB", "brand": "HNB", "atm": "yes", "alt_name": null, "addr_city": "Wellawatte - Colombo 06" }, "geometry": { "type": "Point", "coordinates": [ 79.8609216, 6.8751711 ] } },
{ "type": "Feature", "properties": { "amenity": "bank", "short_name": null, "name": "Bank of Ceylon", "brand": "Bank of Ceylon", "atm": "yes", "alt_name": null, "addr_city": null }, "geometry": { "type": "Point", "coordinates": [ 79.8612059, 6.8760073 ] } },
{ "type": "Feature", "properties": { "amenity": "bank", "short_name": null, "name": "Seylan Bank", "brand": "Seylan Bank", "atm": null, "alt_name": null, "addr_city": null }, "geometry": { "type": "Point", "coordinates": [ 79.8536534, 6.9051219 ] } },
{ "type": "Feature", "properties": { "amenity": "bank", "short_name": null, "name": "HSBC", "brand": "HSBC", "atm": "yes", "alt_name": null, "addr_city": null }, "geometry": { "type": "Point", "coordinates": [ 79.8833917, 6.7791246 ] } },
{ "type": "Feature", "properties": { "amenity": "bank", "short_name": null, "name": "ICICI Bank", "brand": null, "atm": "yes", "alt_name": null, "addr_city": "Colombo 03" }, "geometry": { "type": "Point", "coordinates": [ 79.8524185, 6.9124686 ] } },
{ "type": "Feature", "properties": { "amenity": "bank", "short_name": "Citi", "name": "Citibank", "brand": "Citibank", "atm": null, "alt_name": null, "addr_city": null }, "geometry": { "type": "Point", "coordinates": [ 79.8544811, 6.9127854 ] } },
{ "type": "Feature", "properties": { "amenity": "bank", "short_name": null, "name": "Union Bank", "brand": null, "atm": null, "alt_name": null, "addr_city": null }, "geometry": { "type": "Point", "coordinates": [ 79.8546582, 6.912583 ] } },
{ "type": "Feature", "properties": { "amenity": "bank", "short_name": "HNB", "name": "Hatton National Bank", "brand": "Hatton National Bank", "atm": null, "alt_name": null, "addr_city": "Colombo 11" }, "geometry": { "type": "Point", "coordinates": [ 79.8503248, 6.937141 ] } },
{ "type": "Feature", "properties": { "amenity": "bank", "short_name": null, "name": "Bank of Ceylon", "brand": "Bank of Ceylon", "atm": "yes", "alt_name": null, "addr_city": "Colombo 11" }, "geometry": { "type": "Point", "coordinates": [ 79.8501699, 6.9370682 ] } },
{ "type": "Feature", "properties": { "amenity": "bank", "short_name": null, "name": "Seylan Bank", "brand": "Seylan Bank", "atm": null, "alt_name": null, "addr_city": null }, "geometry": { "type": "Point", "coordinates": [ 79.852264, 6.9380863 ] } },
{ "type": "Feature", "properties": { "amenity": "bank", "short_name": null, "name": "HSBC", "brand": "HSBC", "atm": null, "alt_name": null, "addr_city": "Colombo 2" }, "geometry": { "type": "Point", "coordinates": [ 79.8550776, 6.9219641 ] } },
{ "type": "Feature", "properties": { "amenity": "bank", "short_name": null, "name": "People's Bank", "brand": null, "atm": "yes", "alt_name": null, "addr_city": null }, "geometry": { "type": "Point", "coordinates": [ 79.8566548, 6.9211227 ] } },
{ "type": "Feature", "properties": { "amenity": "bank", "short_name": null, "name": "HSBC", "brand": "HSBC", "atm": null, "alt_name": null, "addr_city": "Colombo 7" }, "geometry": { "type": "Point", "coordinates": [ 79.8576182, 6.9096076 ] } },
{ "type": "Feature", "properties": { "amenity": "bank", "short_name": null, "name": "Nations Trust Bank", "brand": null, "atm": "yes", "alt_name": null, "addr_city": "Havelock Road" }, "geometry": { "type": "Point", "coordinates": [ 79.8612539, 6.8944634 ] } },
{ "type": "Feature", "properties": { "amenity": "bank", "short_name": null, "name": "Sampath Bank", "brand": "Sampath Bank", "atm": null, "alt_name": null, "addr_city": null }, "geometry": { "type": "Point", "coordinates": [ 79.8546608, 6.893842 ] } },
{ "type": "Feature", "properties": { "amenity": "bank", "short_name": null, "name": "Bank of Ceylon", "brand": "Bank of Ceylon", "atm": "yes", "alt_name": null, "addr_city": "Bambalapitiya" }, "geometry": { "type": "Point", "coordinates": [ 79.8553452, 6.8935736 ] } },
{ "type": "Feature", "properties": { "amenity": "bank", "short_name": null, "name": "B O C Meegoda", "brand": null, "atm": null, "alt_name": null, "addr_city": null }, "geometry": { "type": "Point", "coordinates": [ 80.0468058, 6.8440334 ] } },
{ "type": "Feature", "properties": { "amenity": "bank", "short_name": null, "name": "Sampath Bank", "brand": "Sampath Bank", "atm": "yes", "alt_name": null, "addr_city": "Piliyandala" }, "geometry": { "type": "Point", "coordinates": [ 79.9213156, 6.8007619 ] } },
{ "type": "Feature", "properties": { "amenity": "bank", "short_name": null, "name": "Pan Asia Bank", "brand": null, "atm": null, "alt_name": null, "addr_city": "Piliyandala" }, "geometry": { "type": "Point", "coordinates": [ 79.9241211, 6.8004831 ] } },
{ "type": "Feature", "properties": { "amenity": "bank", "short_name": null, "name": "Commercial Bank of Ceylon", "brand": "Commercial Bank of Ceylon", "atm": "yes", "alt_name": null, "addr_city": null }, "geometry": { "type": "Point", "coordinates": [ 79.8621163, 6.9162609 ] } },
{ "type": "Feature", "properties": { "amenity": "bank", "short_name": null, "name": "Peoples Bank", "brand": null, "atm": "yes", "alt_name": null, "addr_city": "Dehiwala" }, "geometry": { "type": "Point", "coordinates": [ 79.8654691, 6.8511002 ] } },
{ "type": "Feature", "properties": { "amenity": "bank", "short_name": null, "name": "Sampath Bank", "brand": "Sampath Bank", "atm": "yes", "alt_name": null, "addr_city": "Dehiwala" }, "geometry": { "type": "Point", "coordinates": [ 79.865704, 6.8546327 ] } },
{ "type": "Feature", "properties": { "amenity": "bank", "short_name": null, "name": null, "brand": null, "atm": null, "alt_name": null, "addr_city": null }, "geometry": { "type": "Point", "coordinates": [ 79.8853362, 6.8336652 ] } },
{ "type": "Feature", "properties": { "amenity": "bank", "short_name": null, "name": "NSB", "brand": "NSB", "atm": "yes", "alt_name": null, "addr_city": "Wattegedara Junction" }, "geometry": { "type": "Point", "coordinates": [ 79.9217075, 6.8509632 ] } },
{ "type": "Feature", "properties": { "amenity": "bank", "short_name": null, "name": "Commercial Bank of Ceylon", "brand": "Commercial Bank of Ceylon", "atm": "yes", "alt_name": null, "addr_city": "Kottawa" }, "geometry": { "type": "Point", "coordinates": [ 79.9632262, 6.8416878 ] } },
{ "type": "Feature", "properties": { "amenity": "bank", "short_name": null, "name": "Sampath Bank", "brand": "Sampath Bank", "atm": "yes", "alt_name": null, "addr_city": "Embuldeniya" }, "geometry": { "type": "Point", "coordinates": [ 79.9097827, 6.8677216 ] } },
{ "type": "Feature", "properties": { "amenity": "bank", "short_name": null, "name": "Peoples Bank", "brand": "Peoples Bank", "atm": null, "alt_name": null, "addr_city": "Kirulapone" }, "geometry": { "type": "Point", "coordinates": [ 79.8747603, 6.8787472 ] } },
{ "type": "Feature", "properties": { "amenity": "bank", "short_name": null, "name": "Sampath Bank", "brand": null, "atm": null, "alt_name": null, "addr_city": "Delkanda" }, "geometry": { "type": "Point", "coordinates": [ 79.8972186, 6.8660334 ] } },
{ "type": "Feature", "properties": { "amenity": "bank", "short_name": null, "name": "NDB", "brand": null, "atm": null, "alt_name": null, "addr_city": "Maharagama" }, "geometry": { "type": "Point", "coordinates": [ 79.9291476, 6.8453789 ] } },
{ "type": "Feature", "properties": { "amenity": "bank", "short_name": null, "name": "Bank of Ceylon", "brand": "Bank of Ceylon", "atm": "yes", "alt_name": null, "addr_city": "Maharagama" }, "geometry": { "type": "Point", "coordinates": [ 79.928115, 6.8460596 ] } },
{ "type": "Feature", "properties": { "amenity": "bank", "short_name": null, "name": "Peoples Bank", "brand": null, "atm": null, "alt_name": null, "addr_city": "Embuldeniya" }, "geometry": { "type": "Point", "coordinates": [ 79.9103366, 6.8674805 ] } },
{ "type": "Feature", "properties": { "amenity": "bank", "short_name": null, "name": "HNB", "brand": "HNB", "atm": "yes", "alt_name": null, "addr_city": "Wijerama" }, "geometry": { "type": "Point", "coordinates": [ 79.9060316, 6.8601381 ] } },
{ "type": "Feature", "properties": { "amenity": "bank", "short_name": "HNB", "name": "Hatton National Bank", "brand": "Hatton National Bank", "atm": "yes", "alt_name": null, "addr_city": "Kottawa" }, "geometry": { "type": "Point", "coordinates": [ 79.9633551, 6.8418917 ] } },
{ "type": "Feature", "properties": { "amenity": "bank", "short_name": null, "name": "Sampath Bank", "brand": "Sampath Bank", "atm": null, "alt_name": null, "addr_city": "Kohuwala" }, "geometry": { "type": "Point", "coordinates": [ 79.8829431, 6.8664105 ] } },
{ "type": "Feature", "properties": { "amenity": "bank", "short_name": null, "name": "NSB", "brand": "NSB", "atm": "yes", "alt_name": null, "addr_city": null }, "geometry": { "type": "Point", "coordinates": [ 79.877517, 6.8672653 ] } },
{ "type": "Feature", "properties": { "amenity": "bank", "short_name": null, "name": "BOC", "brand": "BOC", "atm": null, "alt_name": null, "addr_city": "Wijerama" }, "geometry": { "type": "Point", "coordinates": [ 79.9086185, 6.8578366 ] } },
{ "type": "Feature", "properties": { "amenity": "bank", "short_name": null, "name": "DFCC Bank", "brand": null, "atm": null, "alt_name": null, "addr_city": "wijerama" }, "geometry": { "type": "Point", "coordinates": [ 79.9050773, 6.8615182 ] } },
{ "type": "Feature", "properties": { "amenity": "bank", "short_name": null, "name": "Commercial Bank of Ceylon", "brand": "Commercial Bank of Ceylon", "atm": "yes", "alt_name": null, "addr_city": "Colombo02" }, "geometry": { "type": "Point", "coordinates": [ 79.8526328, 6.9230681 ] } },
{ "type": "Feature", "properties": { "amenity": "bank", "short_name": null, "name": "Standard Chartered", "brand": "Standard Chartered", "atm": "yes", "alt_name": null, "addr_city": "Kirulapona" }, "geometry": { "type": "Point", "coordinates": [ 79.8707719, 6.8802919 ] } },
{ "type": "Feature", "properties": { "amenity": "bank", "short_name": null, "name": "People's Bank", "brand": null, "atm": "yes", "alt_name": null, "addr_city": "Kottawa" }, "geometry": { "type": "Point", "coordinates": [ 79.9642088, 6.8420513 ] } },
{ "type": "Feature", "properties": { "amenity": "bank", "short_name": null, "name": "NSB", "brand": "NSB", "atm": "yes", "alt_name": null, "addr_city": "Homagama" }, "geometry": { "type": "Point", "coordinates": [ 80.0006317, 6.8408382 ] } },
{ "type": "Feature", "properties": { "amenity": "bank", "short_name": null, "name": "NSB", "brand": null, "atm": null, "alt_name": null, "addr_city": null }, "geometry": { "type": "Point", "coordinates": [ 80.046961, 6.8439791 ] } },
{ "type": "Feature", "properties": { "amenity": "bank", "short_name": null, "name": "Seylan Bank", "brand": null, "atm": "yes", "alt_name": null, "addr_city": "Avissawella" }, "geometry": { "type": "Point", "coordinates": [ 80.2133245, 6.9512072 ] } },
{ "type": "Feature", "properties": { "amenity": "bank", "short_name": null, "name": "Sampath Bank", "brand": null, "atm": "yes", "alt_name": null, "addr_city": "Avissawella" }, "geometry": { "type": "Point", "coordinates": [ 80.2138244, 6.9522711 ] } },
{ "type": "Feature", "properties": { "amenity": "bank", "short_name": null, "name": "H N B", "brand": null, "atm": "yes", "alt_name": null, "addr_city": "Avissawella" }, "geometry": { "type": "Point", "coordinates": [ 80.2136546, 6.950776 ] } },
{ "type": "Feature", "properties": { "amenity": "bank", "short_name": null, "name": "People's Bank", "brand": null, "atm": "yes", "alt_name": null, "addr_city": "Avissawella" }, "geometry": { "type": "Point", "coordinates": [ 80.2140175, 6.9522818 ] } },
{ "type": "Feature", "properties": { "amenity": "bank", "short_name": null, "name": "Bank of Ceylon", "brand": "Bank of Ceylon", "atm": "yes", "alt_name": null, "addr_city": null }, "geometry": { "type": "Point", "coordinates": [ 80.213382, 6.9521632 ] } },
{ "type": "Feature", "properties": { "amenity": "bank", "short_name": null, "name": "HNB", "brand": "HNB", "atm": "yes", "alt_name": null, "addr_city": null }, "geometry": { "type": "Point", "coordinates": [ 79.8838001, 6.8681716 ] } },
{ "type": "Feature", "properties": { "amenity": "bank", "short_name": null, "name": "Peoples Bank", "brand": null, "atm": "yes", "alt_name": null, "addr_city": null }, "geometry": { "type": "Point", "coordinates": [ 79.8837142, 6.8682569 ] } },
{ "type": "Feature", "properties": { "amenity": "bank", "short_name": null, "name": "NDB", "brand": null, "atm": null, "alt_name": null, "addr_city": null }, "geometry": { "type": "Point", "coordinates": [ 79.8543973, 6.8963837 ] } },
{ "type": "Feature", "properties": { "amenity": "bank", "short_name": null, "name": "Pan Asia Banking Corporation PLC", "brand": null, "atm": "yes", "alt_name": null, "addr_city": null }, "geometry": { "type": "Point", "coordinates": [ 79.8514982, 6.9050682 ] } },
{ "type": "Feature", "properties": { "amenity": "bank", "short_name": null, "name": "Amana Takaful", "brand": null, "atm": null, "alt_name": null, "addr_city": "Colombo 03" }, "geometry": { "type": "Point", "coordinates": [ 79.8518228, 6.9040963 ] } },
{ "type": "Feature", "properties": { "amenity": "bank", "short_name": null, "name": "Nations Trust Bank KOLLUPITIYA", "brand": null, "atm": "yes", "alt_name": null, "addr_city": null }, "geometry": { "type": "Point", "coordinates": [ 79.8516942, 6.9047782 ] } },
{ "type": "Feature", "properties": { "amenity": "bank", "short_name": null, "name": "Commercial Bank of Ceylon", "brand": "Commercial Bank of Ceylon", "atm": "yes", "alt_name": null, "addr_city": null }, "geometry": { "type": "Point", "coordinates": [ 79.8575546, 6.8863407 ] } },
{ "type": "Feature", "properties": { "amenity": "bank", "short_name": null, "name": "Sampath Bank", "brand": "Sampath Bank", "atm": "yes", "alt_name": null, "addr_city": "Colombo 7" }, "geometry": { "type": "Point", "coordinates": [ 79.8597674, 6.9072703 ] } },
{ "type": "Feature", "properties": { "amenity": "bank", "short_name": null, "name": "Peoples Bank", "brand": null, "atm": null, "alt_name": null, "addr_city": null }, "geometry": { "type": "Point", "coordinates": [ 79.8643862, 6.923542 ] } },
{ "type": "Feature", "properties": { "amenity": "bank", "short_name": null, "name": "NSB", "brand": "NSB", "atm": "yes", "alt_name": null, "addr_city": null }, "geometry": { "type": "Point", "coordinates": [ 79.9179012, 6.9019587 ] } },
{ "type": "Feature", "properties": { "amenity": "bank", "short_name": null, "name": "Sampath Bank", "brand": "Sampath Bank", "atm": "yes", "alt_name": null, "addr_city": null }, "geometry": { "type": "Point", "coordinates": [ 80.0762638, 6.9074273 ] } },
{ "type": "Feature", "properties": { "amenity": "bank", "short_name": null, "name": "HNB", "brand": "HNB", "atm": "yes", "alt_name": null, "addr_city": null }, "geometry": { "type": "Point", "coordinates": [ 79.9811631, 6.9369912 ] } },
{ "type": "Feature", "properties": { "amenity": "bank", "short_name": null, "name": "Peoples Bank", "brand": null, "atm": "yes", "alt_name": null, "addr_city": null }, "geometry": { "type": "Point", "coordinates": [ 79.9824302, 6.9365622 ] } },
{ "type": "Feature", "properties": { "amenity": "bank", "short_name": null, "name": "Commercial Bank", "brand": null, "atm": "yes", "alt_name": "Avissawella Branch", "addr_city": "Avissawella" }, "geometry": { "type": "Point", "coordinates": [ 80.206539, 6.9550469 ] } },
{ "type": "Feature", "properties": { "amenity": "bank", "short_name": null, "name": "Commercial Bank of Ceylon", "brand": "Commercial Bank of Ceylon", "atm": "yes", "alt_name": "BASELINE ROAD BRANCH", "addr_city": null }, "geometry": { "type": "Point", "coordinates": [ 79.8786303, 6.9431855 ] } },
{ "type": "Feature", "properties": { "amenity": "bank", "short_name": null, "name": "Peoples Bank", "brand": null, "atm": null, "alt_name": null, "addr_city": null }, "geometry": { "type": "Point", "coordinates": [ 80.0869953, 6.9033226 ] } },
{ "type": "Feature", "properties": { "amenity": "bank", "short_name": null, "name": "Peoples Bank Kosgama", "brand": null, "atm": null, "alt_name": null, "addr_city": null }, "geometry": { "type": "Point", "coordinates": [ 80.1368749, 6.9406121 ] } },
{ "type": "Feature", "properties": { "amenity": "bank", "short_name": null, "name": "Commercial Bank of Ceylon", "brand": "Commercial Bank of Ceylon", "atm": "yes", "alt_name": "Hanwella Branch", "addr_city": "Hanwella" }, "geometry": { "type": "Point", "coordinates": [ 80.0801147, 6.9085834 ] } },
{ "type": "Feature", "properties": { "amenity": "bank", "short_name": null, "name": "Commercial Bank of Ceylon", "brand": "Commercial Bank of Ceylon", "atm": "yes", "alt_name": "Moratuwa Branch", "addr_city": null }, "geometry": { "type": "Point", "coordinates": [ 79.8834574, 6.7811765 ] } },
{ "type": "Feature", "properties": { "amenity": "bank", "short_name": null, "name": "Commercial Bank of Ceylon", "brand": "Commercial Bank of Ceylon", "atm": "yes", "alt_name": "Moratuwa Minicom", "addr_city": null }, "geometry": { "type": "Point", "coordinates": [ 79.8867607, 6.7929059 ] } },
{ "type": "Feature", "properties": { "amenity": "bank", "short_name": null, "name": "Commercial Bank of Ceylon", "brand": "Commercial Bank of Ceylon", "atm": null, "alt_name": "Arpico Super Centre Dehiwela", "addr_city": null }, "geometry": { "type": "Point", "coordinates": [ 79.8665767, 6.8467332 ] } },
{ "type": "Feature", "properties": { "amenity": "bank", "short_name": null, "name": "DFCV Bank", "brand": null, "atm": "yes", "alt_name": "Mount Lavinia Branch", "addr_city": null }, "geometry": { "type": "Point", "coordinates": [ 79.867355, 6.840981 ] } },
{ "type": "Feature", "properties": { "amenity": "bank", "short_name": null, "name": "Commercial Bank of Ceylon", "brand": "Commercial Bank of Ceylon", "atm": "yes", "alt_name": "Homagama Branch", "addr_city": null }, "geometry": { "type": "Point", "coordinates": [ 80.005866, 6.8421469 ] } },
{ "type": "Feature", "properties": { "amenity": "bank", "short_name": null, "name": "Commercial Bank of Ceylon", "brand": "Commercial Bank of Ceylon", "atm": null, "alt_name": "Majestic City HBC", "addr_city": null }, "geometry": { "type": "Point", "coordinates": [ 79.8543559, 6.8938767 ] } },
{ "type": "Feature", "properties": { "amenity": "bank", "short_name": null, "name": "Commercial Bank of Ceylon", "brand": "Commercial Bank of Ceylon", "atm": "yes", "alt_name": "Pita Kotte Branch", "addr_city": null }, "geometry": { "type": "Point", "coordinates": [ 79.901869, 6.885634 ] } },
{ "type": "Feature", "properties": { "amenity": "bank", "short_name": null, "name": "Commercial Bank of Ceylon", "brand": "Commercial Bank of Ceylon", "atm": "yes", "alt_name": "Kirulapone Branch", "addr_city": "Kirulapone" }, "geometry": { "type": "Point", "coordinates": [ 79.8759707, 6.8781678 ] } },
{ "type": "Feature", "properties": { "amenity": "bank", "short_name": null, "name": "Commercial Bank of Ceylon", "brand": "Commercial Bank of Ceylon", "atm": null, "alt_name": "Dehiwala Branch", "addr_city": null }, "geometry": { "type": "Point", "coordinates": [ 79.864941, 6.858195 ] } },
{ "type": "Feature", "properties": { "amenity": "bank", "short_name": null, "name": "Commercial Bank of Ceylon PLC", "brand": null, "atm": "yes", "alt_name": "Athurugiriya Branch", "addr_city": "Athurugiriya" }, "geometry": { "type": "Point", "coordinates": [ 79.9907434, 6.8767506 ] } },
{ "type": "Feature", "properties": { "amenity": "bank", "short_name": null, "name": "Commercial Bank of Ceylon", "brand": "Commercial Bank of Ceylon", "atm": "yes", "alt_name": "Nugegoda Minicom", "addr_city": "Colombo 06" }, "geometry": { "type": "Point", "coordinates": [ 79.8807823, 6.8757278 ] } },
{ "type": "Feature", "properties": { "amenity": "bank", "short_name": null, "name": "Commercial Bank of Ceylon", "brand": "Commercial Bank of Ceylon", "atm": "yes", "alt_name": "Duplication Road Branch", "addr_city": null }, "geometry": { "type": "Point", "coordinates": [ 79.8555574, 6.9003732 ] } },
{ "type": "Feature", "properties": { "amenity": "bank", "short_name": null, "name": "Commercial Bank of Ceylon", "brand": "Commercial Bank of Ceylon", "atm": "yes", "alt_name": "E-Banking Centre", "addr_city": null }, "geometry": { "type": "Point", "coordinates": [ 79.8462669, 6.9315017 ] } },
{ "type": "Feature", "properties": { "amenity": "bank", "short_name": null, "name": "Commercial Bank of Ceylon", "brand": "Commercial Bank of Ceylon", "atm": "yes", "alt_name": "Elite Branch", "addr_city": null }, "geometry": { "type": "Point", "coordinates": [ 79.8676644, 6.9098421 ] } },
{ "type": "Feature", "properties": { "amenity": "bank", "short_name": null, "name": "Commercial Bank of Ceylon", "brand": "Commercial Bank of Ceylon", "atm": "yes", "alt_name": "Kollupitiya Branch", "addr_city": null }, "geometry": { "type": "Point", "coordinates": [ 79.850697, 6.908706 ] } },
{ "type": "Feature", "properties": { "amenity": "bank", "short_name": null, "name": "Commercial Bank of Ceylon", "brand": "Commercial Bank of Ceylon", "atm": null, "alt_name": "Arpico Super Centre Battaramulla", "addr_city": null }, "geometry": { "type": "Point", "coordinates": [ 79.9171738, 6.9023825 ] } },
{ "type": "Feature", "properties": { "amenity": "bank", "short_name": null, "name": "Commercial Bank of Ceylon", "brand": "Commercial Bank of Ceylon", "atm": "yes", "alt_name": "Rajagiriya Branch", "addr_city": null }, "geometry": { "type": "Point", "coordinates": [ 79.8951959, 6.9100515 ] } },
{ "type": "Feature", "properties": { "amenity": "bank", "short_name": null, "name": "Commercial Bank of Ceylon", "brand": "Commercial Bank of Ceylon", "atm": "yes", "alt_name": "Borella Branch", "addr_city": null }, "geometry": { "type": "Point", "coordinates": [ 79.877273, 6.911794 ] } },
{ "type": "Feature", "properties": { "amenity": "bank", "short_name": null, "name": "Commercial Bank of Ceylon", "brand": "Commercial Bank of Ceylon", "atm": null, "alt_name": "Staple Street Minicom", "addr_city": null }, "geometry": { "type": "Point", "coordinates": [ 79.855832, 6.9201412 ] } },
{ "type": "Feature", "properties": { "amenity": "bank", "short_name": null, "name": "Commercial Bank of Ceylon", "brand": "Commercial Bank of Ceylon", "atm": "yes", "alt_name": "Maradana Branch", "addr_city": null }, "geometry": { "type": "Point", "coordinates": [ 79.8668644, 6.926033 ] } },
{ "type": "Feature", "properties": { "amenity": "bank", "short_name": null, "name": "Commercial Bank of Ceylon", "brand": "Commercial Bank of Ceylon", "atm": "yes", "alt_name": "City Office", "addr_city": null }, "geometry": { "type": "Point", "coordinates": [ 79.8444654, 6.9371969 ] } },
{ "type": "Feature", "properties": { "amenity": "bank", "short_name": null, "name": "Commercial Bank of Ceylon", "brand": "Commercial Bank of Ceylon", "atm": "yes", "alt_name": "Pettah Keyzer Street Branch", "addr_city": null }, "geometry": { "type": "Point", "coordinates": [ 79.8501875, 6.9363063 ] } },
{ "type": "Feature", "properties": { "amenity": "bank", "short_name": null, "name": "Commercial Bank of Ceylon", "brand": "Commercial Bank of Ceylon", "atm": "yes", "alt_name": "Kotahena Branch", "addr_city": null }, "geometry": { "type": "Point", "coordinates": [ 79.861153, 6.9476632 ] } },
{ "type": "Feature", "properties": { "amenity": "bank", "short_name": null, "name": "Commercial Bank of Ceylon", "brand": "Commercial Bank of Ceylon", "atm": "yes", "alt_name": "Grandpass Branch", "addr_city": null }, "geometry": { "type": "Point", "coordinates": [ 79.8716072, 6.9491002 ] } },
{ "type": "Feature", "properties": { "amenity": "bank", "short_name": null, "name": "Commercial Bank of Ceylon", "brand": "Commercial Bank of Ceylon", "atm": "yes", "alt_name": "Panchikawatte Branch", "addr_city": null }, "geometry": { "type": "Point", "coordinates": [ 79.866217, 6.934266 ] } },
{ "type": "Feature", "properties": { "amenity": "bank", "short_name": null, "name": "Commercial Bank of Ceylon PLC", "brand": null, "atm": "yes", "alt_name": "Kotikawatte Branch", "addr_city": "Kotikawatte" }, "geometry": { "type": "Point", "coordinates": [ 79.9171149, 6.9361812 ] } },
{ "type": "Feature", "properties": { "amenity": "bank", "short_name": null, "name": "Commercial Bank of Ceylon", "brand": "Commercial Bank of Ceylon", "atm": "yes", "alt_name": "Kaduwela Branch", "addr_city": null }, "geometry": { "type": "Point", "coordinates": [ 79.9793093, 6.9373382 ] } },
{ "type": "Feature", "properties": { "amenity": "bank", "short_name": null, "name": "Commercial Bank of Ceylon", "brand": "Commercial Bank of Ceylon", "atm": "yes", "alt_name": "Pettah Branch", "addr_city": null }, "geometry": { "type": "Point", "coordinates": [ 79.856035, 6.937936 ] } },
{ "type": "Feature", "properties": { "amenity": "bank", "short_name": null, "name": "Commercial Bank of Ceylon", "brand": "Commercial Bank of Ceylon", "atm": "yes", "alt_name": "Pettah Main Street Branch", "addr_city": null }, "geometry": { "type": "Point", "coordinates": [ 79.8533588, 6.9386774 ] } },
{ "type": "Feature", "properties": { "amenity": "bank", "short_name": null, "name": "Commercial Bank of Ceylon", "brand": "Commercial Bank of Ceylon", "atm": "yes", "alt_name": "Old Moor Street Branch", "addr_city": null }, "geometry": { "type": "Point", "coordinates": [ 79.8648283, 6.9407248 ] } },
{ "type": "Feature", "properties": { "amenity": "bank", "short_name": null, "name": "Standard Chartered", "brand": "Standard Chartered", "atm": null, "alt_name": null, "addr_city": null }, "geometry": { "type": "Point", "coordinates": [ 79.8841353, 6.8073138 ] } },
{ "type": "Feature", "properties": { "amenity": "bank", "short_name": null, "name": "Peoples Bank", "brand": null, "atm": "yes", "alt_name": null, "addr_city": "Kotikawatte" }, "geometry": { "type": "Point", "coordinates": [ 79.9168463, 6.9357036 ] } },
{ "type": "Feature", "properties": { "amenity": "bank", "short_name": null, "name": "HNB", "brand": "HNB", "atm": null, "alt_name": null, "addr_city": "Colombo 03" }, "geometry": { "type": "Point", "coordinates": [ 79.850824, 6.9080465 ] } },
{ "type": "Feature", "properties": { "amenity": "bank", "short_name": null, "name": "NSB", "brand": "NSB", "atm": null, "alt_name": null, "addr_city": "Colombo 03" }, "geometry": { "type": "Point", "coordinates": [ 79.8512557, 6.906734 ] } },
{ "type": "Feature", "properties": { "amenity": "bank", "short_name": null, "name": "BOC", "brand": "BOC", "atm": "yes", "alt_name": null, "addr_city": "Colombo 03" }, "geometry": { "type": "Point", "coordinates": [ 79.8527498, 6.9026145 ] } },
{ "type": "Feature", "properties": { "amenity": "bank", "short_name": null, "name": "Peoples Bank", "brand": null, "atm": null, "alt_name": null, "addr_city": "Moraketiya Junction" }, "geometry": { "type": "Point", "coordinates": [ 79.9534049, 6.8454123 ] } },
{ "type": "Feature", "properties": { "amenity": "bank", "short_name": null, "name": "DFCC Bank", "brand": null, "atm": null, "alt_name": null, "addr_city": "Kottawa" }, "geometry": { "type": "Point", "coordinates": [ 79.9656683, 6.8412601 ] } },
{ "type": "Feature", "properties": { "amenity": "bank", "short_name": null, "name": "Union Bank Nugegoda", "brand": null, "atm": null, "alt_name": null, "addr_city": null }, "geometry": { "type": "Point", "coordinates": [ 79.8920068, 6.8750702 ] } },
{ "type": "Feature", "properties": { "amenity": "bank", "short_name": null, "name": "NSB", "brand": "NSB", "atm": null, "alt_name": null, "addr_city": "Nugegoda" }, "geometry": { "type": "Point", "coordinates": [ 79.8922401, 6.8743326 ] } },
{ "type": "Feature", "properties": { "amenity": "bank", "short_name": null, "name": "Sampath Bank", "brand": "Sampath Bank", "atm": "yes", "alt_name": null, "addr_city": "Kirulapone" }, "geometry": { "type": "Point", "coordinates": [ 79.8776156, 6.8777929 ] } },
{ "type": "Feature", "properties": { "amenity": "bank", "short_name": null, "name": "Seylan Bank", "brand": "Seylan Bank", "atm": null, "alt_name": null, "addr_city": "Kirulapone" }, "geometry": { "type": "Point", "coordinates": [ 79.8815783, 6.8741089 ] } },
{ "type": "Feature", "properties": { "amenity": "bank", "short_name": null, "name": "Pan Asia Bank", "brand": null, "atm": null, "alt_name": null, "addr_city": "Nugegoda WP" }, "geometry": { "type": "Point", "coordinates": [ 79.8858618, 6.8710359 ] } },
{ "type": "Feature", "properties": { "amenity": "bank", "short_name": null, "name": "NSB", "brand": "NSB", "atm": null, "alt_name": null, "addr_city": "Kirulapone" }, "geometry": { "type": "Point", "coordinates": [ 79.8774431, 6.8777306 ] } },
{ "type": "Feature", "properties": { "amenity": "bank", "short_name": null, "name": "N T B", "brand": null, "atm": null, "alt_name": null, "addr_city": "Nugegoda WP" }, "geometry": { "type": "Point", "coordinates": [ 79.8852047, 6.8713474 ] } },
{ "type": "Feature", "properties": { "amenity": "bank", "short_name": null, "name": "Union Bank", "brand": null, "atm": null, "alt_name": null, "addr_city": null }, "geometry": { "type": "Point", "coordinates": [ 79.8762756, 6.8711584 ] } },
{ "type": "Feature", "properties": { "amenity": "bank", "short_name": null, "name": "BOC", "brand": "BOC", "atm": null, "alt_name": null, "addr_city": "Kirulapone" }, "geometry": { "type": "Point", "coordinates": [ 79.8754227, 6.8783589 ] } },
{ "type": "Feature", "properties": { "amenity": "bank", "short_name": null, "name": "Pan Asia Bank", "brand": null, "atm": null, "alt_name": null, "addr_city": "Thalawathugoda" }, "geometry": { "type": "Point", "coordinates": [ 79.935869, 6.8754412 ] } },
{ "type": "Feature", "properties": { "amenity": "bank", "short_name": null, "name": "BOC", "brand": "BOC", "atm": null, "alt_name": null, "addr_city": "Thalawathugoda" }, "geometry": { "type": "Point", "coordinates": [ 79.9361748, 6.8755424 ] } },
{ "type": "Feature", "properties": { "amenity": "bank", "short_name": null, "name": "Peoples Bank Rajagiriya", "brand": null, "atm": null, "alt_name": null, "addr_city": null }, "geometry": { "type": "Point", "coordinates": [ 79.8957861, 6.9094428 ] } },
{ "type": "Feature", "properties": { "amenity": "bank", "short_name": null, "name": "People's Bank Borella", "brand": null, "atm": "yes", "alt_name": null, "addr_city": null }, "geometry": { "type": "Point", "coordinates": [ 79.8772411, 6.9136033 ] } },
{ "type": "Feature", "properties": { "amenity": "bank", "short_name": null, "name": "Pan Asia Bank Borella", "brand": null, "atm": null, "alt_name": null, "addr_city": null }, "geometry": { "type": "Point", "coordinates": [ 79.8747227, 6.9174363 ] } },
{ "type": "Feature", "properties": { "amenity": "bank", "short_name": null, "name": "DFCC Bank Borella", "brand": null, "atm": null, "alt_name": null, "addr_city": null }, "geometry": { "type": "Point", "coordinates": [ 79.8781607, 6.9142364 ] } },
{ "type": "Feature", "properties": { "amenity": "bank", "short_name": null, "name": "HNB", "brand": "HNB", "atm": "yes", "alt_name": null, "addr_city": "Dehiwala" }, "geometry": { "type": "Point", "coordinates": [ 79.8657056, 6.8524925 ] } },
{ "type": "Feature", "properties": { "amenity": "bank", "short_name": null, "name": "BOC", "brand": "BOC", "atm": "yes", "alt_name": null, "addr_city": "Dehiwala" }, "geometry": { "type": "Point", "coordinates": [ 79.8659446, 6.8527608 ] } },
{ "type": "Feature", "properties": { "amenity": "bank", "short_name": null, "name": "HDFC Bank", "brand": "HDFC Bank", "atm": null, "alt_name": null, "addr_city": "Avissawella" }, "geometry": { "type": "Point", "coordinates": [ 80.21375, 6.9505573 ] } },
{ "type": "Feature", "properties": { "amenity": "bank", "short_name": null, "name": "Sampath Bank", "brand": "Sampath Bank", "atm": "yes", "alt_name": null, "addr_city": "Kottawa" }, "geometry": { "type": "Point", "coordinates": [ 79.9631531, 6.8417151 ] } },
{ "type": "Feature", "properties": { "amenity": "bank", "short_name": null, "name": "Bank of Ceylon", "brand": "Bank of Ceylon", "atm": "yes", "alt_name": null, "addr_city": "Kottawa" }, "geometry": { "type": "Point", "coordinates": [ 79.9613019, 6.8427275 ] } },
{ "type": "Feature", "properties": { "amenity": "bank", "short_name": null, "name": "HSBC", "brand": "HSBC", "atm": null, "alt_name": null, "addr_city": null }, "geometry": { "type": "Point", "coordinates": [ 79.8444834, 6.9361025 ] } },
{ "type": "Feature", "properties": { "amenity": "bank", "short_name": "SBI", "name": "State Bank of India", "brand": "State Bank of India", "atm": null, "alt_name": null, "addr_city": null }, "geometry": { "type": "Point", "coordinates": [ 79.8442447, 6.9361611 ] } },
{ "type": "Feature", "properties": { "amenity": "bank", "short_name": null, "name": "Commercial Bank of Ceylon", "brand": "Commercial Bank of Ceylon", "atm": "yes", "alt_name": null, "addr_city": null }, "geometry": { "type": "Point", "coordinates": [ 79.8512835, 6.9117611 ] } },
{ "type": "Feature", "properties": { "amenity": "bank", "short_name": null, "name": "People's Bank", "brand": null, "atm": null, "alt_name": null, "addr_city": "Kollupitiya" }, "geometry": { "type": "Point", "coordinates": [ 79.854185, 6.897821 ] } },
{ "type": "Feature", "properties": { "amenity": "bank", "short_name": null, "name": "BOC", "brand": "BOC", "atm": null, "alt_name": null, "addr_city": "Thunmulla" }, "geometry": { "type": "Point", "coordinates": [ 79.8601314, 6.8962393 ] } },
{ "type": "Feature", "properties": { "amenity": "bank", "short_name": null, "name": "Seylan Bank", "brand": "Seylan Bank", "atm": null, "alt_name": null, "addr_city": null }, "geometry": { "type": "Point", "coordinates": [ 79.9224069, 6.8980578 ] } },
{ "type": "Feature", "properties": { "amenity": "bank", "short_name": null, "name": "Pan Asia Bank Battaramulla", "brand": null, "atm": null, "alt_name": null, "addr_city": null }, "geometry": { "type": "Point", "coordinates": [ 79.9223962, 6.8979753 ] } },
{ "type": "Feature", "properties": { "amenity": "bank", "short_name": null, "name": "Pan Asia Bank Malabe", "brand": null, "atm": null, "alt_name": null, "addr_city": null }, "geometry": { "type": "Point", "coordinates": [ 79.9559078, 6.9024651 ] } },
{ "type": "Feature", "properties": { "amenity": "bank", "short_name": null, "name": "Commercial Bank of Ceylon", "brand": "Commercial Bank of Ceylon", "atm": "yes", "alt_name": null, "addr_city": "Nawala" }, "geometry": { "type": "Point", "coordinates": [ 79.8869056, 6.8870052 ] } },
{ "type": "Feature", "properties": { "amenity": "bank", "short_name": null, "name": "NSB", "brand": "NSB", "atm": "yes", "alt_name": null, "addr_city": "Nawala" }, "geometry": { "type": "Point", "coordinates": [ 79.8870413, 6.8878622 ] } },
{ "type": "Feature", "properties": { "amenity": "bank", "short_name": null, "name": "Public Bank", "brand": null, "atm": null, "alt_name": null, "addr_city": null }, "geometry": { "type": "Point", "coordinates": [ 79.8895349, 6.8820784 ] } },
{ "type": "Feature", "properties": { "amenity": "bank", "short_name": "HNB", "name": "Hatton National Bank", "brand": "Hatton National Bank", "atm": "yes", "alt_name": "HNB", "addr_city": "Piliyandala" }, "geometry": { "type": "Point", "coordinates": [ 79.9204743, 6.801128 ] } },
{ "type": "Feature", "properties": { "amenity": "bank", "short_name": null, "name": "Seylan Bank", "brand": "Seylan Bank", "atm": null, "alt_name": null, "addr_city": "Piliyandala" }, "geometry": { "type": "Point", "coordinates": [ 79.9255711, 6.7998855 ] } },
{ "type": "Feature", "properties": { "amenity": "bank", "short_name": null, "name": "DFCC Bank", "brand": null, "atm": null, "alt_name": null, "addr_city": "Piliyandala" }, "geometry": { "type": "Point", "coordinates": [ 79.9253789, 6.7999909 ] } },
{ "type": "Feature", "properties": { "amenity": "bank", "short_name": null, "name": "Bank of Ceylon", "brand": "Bank of Ceylon", "atm": "yes", "alt_name": null, "addr_city": null }, "geometry": { "type": "Point", "coordinates": [ 79.920964, 6.8012853 ] } },
{ "type": "Feature", "properties": { "amenity": "bank", "short_name": null, "name": "Sampath Bank", "brand": "Sampath Bank", "atm": "yes", "alt_name": null, "addr_city": "Kolonnawa" }, "geometry": { "type": "Point", "coordinates": [ 79.8952675, 6.9359951 ] } },
{ "type": "Feature", "properties": { "amenity": "bank", "short_name": null, "name": "HNB", "brand": "HNB", "atm": "yes", "alt_name": null, "addr_city": "Kolonnawa" }, "geometry": { "type": "Point", "coordinates": [ 79.8911583, 6.9324805 ] } },
{ "type": "Feature", "properties": { "amenity": "bank", "short_name": null, "name": "BOC", "brand": "BOC", "atm": "yes", "alt_name": null, "addr_city": "Kolonnawa" }, "geometry": { "type": "Point", "coordinates": [ 79.8941624, 6.932129 ] } },
{ "type": "Feature", "properties": { "amenity": "bank", "short_name": null, "name": "Peoples Bank", "brand": null, "atm": "yes", "alt_name": null, "addr_city": "Kolonnawa" }, "geometry": { "type": "Point", "coordinates": [ 79.8943501, 6.9328107 ] } },
{ "type": "Feature", "properties": { "amenity": "bank", "short_name": null, "name": "NSB", "brand": "NSB", "atm": "yes", "alt_name": null, "addr_city": null }, "geometry": { "type": "Point", "coordinates": [ 79.8950214, 6.9101177 ] } },
{ "type": "Feature", "properties": { "amenity": "bank", "short_name": null, "name": "HNB", "brand": "HNB", "atm": "yes", "alt_name": null, "addr_city": "Borella" }, "geometry": { "type": "Point", "coordinates": [ 79.8778525, 6.9127351 ] } },
{ "type": "Feature", "properties": { "amenity": "bank", "short_name": null, "name": "NSB", "brand": "NSB", "atm": "yes", "alt_name": null, "addr_city": "Borella" }, "geometry": { "type": "Point", "coordinates": [ 79.8764202, 6.9149904 ] } },
{ "type": "Feature", "properties": { "amenity": "bank", "short_name": null, "name": "Peoples Bank Mahavidyala Mwth", "brand": null, "atm": null, "alt_name": null, "addr_city": null }, "geometry": { "type": "Point", "coordinates": [ 79.8606265, 6.9420343 ] } },
{ "type": "Feature", "properties": { "amenity": "bank", "short_name": null, "name": "NDB Bank", "brand": null, "atm": "yes", "alt_name": null, "addr_city": null }, "geometry": { "type": "Point", "coordinates": [ 80.0007274, 6.8411514 ] } },
{ "type": "Feature", "properties": { "amenity": "bank", "short_name": null, "name": "Nations Trust Bank", "brand": null, "atm": "yes", "alt_name": null, "addr_city": null }, "geometry": { "type": "Point", "coordinates": [ 80.0059135, 6.8426671 ] } },
{ "type": "Feature", "properties": { "amenity": "bank", "short_name": null, "name": "Pan Asia Bank", "brand": null, "atm": "yes", "alt_name": null, "addr_city": null }, "geometry": { "type": "Point", "coordinates": [ 79.8953859, 6.9099749 ] } },
{ "type": "Feature", "properties": { "amenity": "bank", "short_name": null, "name": "SDB", "brand": null, "atm": "no", "alt_name": null, "addr_city": "Kolonnawa" }, "geometry": { "type": "Point", "coordinates": [ 79.8941559, 6.9331993 ] } },
{ "type": "Feature", "properties": { "amenity": "bank", "short_name": null, "name": "Sampath Bank", "brand": "Sampath Bank", "atm": "yes", "alt_name": null, "addr_city": null }, "geometry": { "type": "Point", "coordinates": [ 79.8513794, 6.937655 ] } },
{ "type": "Feature", "properties": { "amenity": "bank", "short_name": null, "name": "NSB", "brand": "NSB", "atm": "yes", "alt_name": "NSB", "addr_city": null }, "geometry": { "type": "Point", "coordinates": [ 79.9832959, 6.7831623 ] } },
{ "type": "Feature", "properties": { "amenity": "bank", "short_name": null, "name": "NSB", "brand": null, "atm": "yes", "alt_name": null, "addr_city": "Boralesgamuwa" }, "geometry": { "type": "Point", "coordinates": [ 79.902168, 6.840506 ] } },
{ "type": "Feature", "properties": { "amenity": "bank", "short_name": null, "name": "Commercial Bank of Ceylon", "brand": "Commercial Bank of Ceylon", "atm": "yes", "alt_name": null, "addr_city": "Boralesgamuwa" }, "geometry": { "type": "Point", "coordinates": [ 79.9016883, 6.8415136 ] } },
{ "type": "Feature", "properties": { "amenity": "bank", "short_name": null, "name": "Commercial Bank", "brand": null, "atm": "yes", "alt_name": null, "addr_city": "Bokundara" }, "geometry": { "type": "Point", "coordinates": [ 79.9174149, 6.8190519 ] } },
{ "type": "Feature", "properties": { "amenity": "bank", "short_name": null, "name": "Peoples Bank", "brand": null, "atm": "yes", "alt_name": null, "addr_city": "Katuwawala" }, "geometry": { "type": "Point", "coordinates": [ 79.9127949, 6.8261351 ] } },
{ "type": "Feature", "properties": { "amenity": "bank", "short_name": null, "name": "People's Bank", "brand": null, "atm": null, "alt_name": null, "addr_city": null }, "geometry": { "type": "Point", "coordinates": [ 79.8690022, 6.9237638 ] } },
{ "type": "Feature", "properties": { "amenity": "bank", "short_name": null, "name": "PLC", "brand": null, "atm": null, "alt_name": null, "addr_city": null }, "geometry": { "type": "Point", "coordinates": [ 79.8767265, 6.9159953 ] } },
{ "type": "Feature", "properties": { "amenity": "bank", "short_name": null, "name": "People's Bank", "brand": null, "atm": "yes", "alt_name": null, "addr_city": null }, "geometry": { "type": "Point", "coordinates": [ 79.8766302, 6.9159368 ] } },
{ "type": "Feature", "properties": { "amenity": "bank", "short_name": null, "name": "Peoples bank", "brand": null, "atm": "yes", "alt_name": null, "addr_city": "Kesbewa" }, "geometry": { "type": "Point", "coordinates": [ 79.9404714, 6.796005 ] } },
{ "type": "Feature", "properties": { "amenity": "bank", "short_name": null, "name": "Peoples bank", "brand": null, "atm": "yes", "alt_name": null, "addr_city": null }, "geometry": { "type": "Point", "coordinates": [ 79.8499497, 6.932717 ] } },
{ "type": "Feature", "properties": { "amenity": "bank", "short_name": null, "name": "Commercial Bank of Ceylon", "brand": "Commercial Bank of Ceylon", "atm": "yes", "alt_name": null, "addr_city": null }, "geometry": { "type": "Point", "coordinates": [ 79.8492176, 6.9331685 ] } },
{ "type": "Feature", "properties": { "amenity": "bank", "short_name": null, "name": "Bank of Ceylon", "brand": "Bank of Ceylon", "atm": "yes", "alt_name": null, "addr_city": "Hanwella" }, "geometry": { "type": "Point", "coordinates": [ 80.0799431, 6.9084742 ] } },
{ "type": "Feature", "properties": { "amenity": "bank", "short_name": null, "name": "National Saving Bank", "brand": null, "atm": "yes", "alt_name": null, "addr_city": null }, "geometry": { "type": "Point", "coordinates": [ 80.0822697, 6.9090069 ] } },
{ "type": "Feature", "properties": { "amenity": "bank", "short_name": null, "name": "Commercial Bank of Ceylon", "brand": "Commercial Bank of Ceylon", "atm": "yes", "alt_name": null, "addr_city": "Wijerama" }, "geometry": { "type": "Point", "coordinates": [ 79.9057026, 6.8604452 ] } },
{ "type": "Feature", "properties": { "amenity": "bank", "short_name": null, "name": "NSB", "brand": null, "atm": "yes", "alt_name": null, "addr_city": "Delkanda" }, "geometry": { "type": "Point", "coordinates": [ 79.9000864, 6.8634981 ] } },
{ "type": "Feature", "properties": { "amenity": "bank", "short_name": null, "name": "Standard Chartered", "brand": "Standard Chartered", "atm": null, "alt_name": null, "addr_city": "Rajagiriya" }, "geometry": { "type": "Point", "coordinates": [ 79.8879665, 6.9096474 ] } },
{ "type": "Feature", "properties": { "amenity": "bank", "short_name": null, "name": "Commercial Bank of Ceylon", "brand": "Commercial Bank of Ceylon", "atm": "yes", "alt_name": null, "addr_city": "Colombo 01" }, "geometry": { "type": "Point", "coordinates": [ 79.8445362, 6.9338476 ] } },
{ "type": "Feature", "properties": { "amenity": "bank", "short_name": null, "name": "Bank of Ceylon", "brand": null, "atm": null, "alt_name": null, "addr_city": "Athurugiriya" }, "geometry": { "type": "Point", "coordinates": [ 79.9895401, 6.877133 ] } },
{ "type": "Feature", "properties": { "amenity": "bank", "short_name": null, "name": "Sampath Bank", "brand": null, "atm": "yes", "alt_name": null, "addr_city": "Athurugiriya" }, "geometry": { "type": "Point", "coordinates": [ 79.9884542, 6.8781175 ] } },
{ "type": "Feature", "properties": { "amenity": "bank", "short_name": null, "name": "People's Bank", "brand": "People's Bank", "atm": "yes", "alt_name": null, "addr_city": "Wellawatte" }, "geometry": { "type": "Point", "coordinates": [ 79.8602757, 6.8773302 ] } },
{ "type": "Feature", "properties": { "amenity": "bank", "short_name": null, "name": "Nation Trust Bank", "brand": null, "atm": "yes", "alt_name": null, "addr_city": "Malabe" }, "geometry": { "type": "Point", "coordinates": [ 79.9561535, 6.9021036 ] } },
{ "type": "Feature", "properties": { "amenity": "bank", "short_name": null, "name": "NTB", "brand": null, "atm": "yes", "alt_name": null, "addr_city": "Borella" }, "geometry": { "type": "Point", "coordinates": [ 79.8779174, 6.9122147 ] } },
{ "type": "Feature", "properties": { "amenity": "bank", "short_name": "HNB", "name": "Hatton National Bank", "brand": "Hatton National Bank", "atm": "yes", "alt_name": null, "addr_city": null }, "geometry": { "type": "Point", "coordinates": [ 79.9006064, 6.8770069 ] } },
{ "type": "Feature", "properties": { "amenity": "bank", "short_name": null, "name": "Bank of Ceylon", "brand": "Bank of Ceylon", "atm": "yes", "alt_name": null, "addr_city": null }, "geometry": { "type": "Point", "coordinates": [ 79.9797528, 6.9369475 ] } },
{ "type": "Feature", "properties": { "amenity": "bank", "short_name": null, "name": "Sampath Bank", "brand": "Sampath Bank", "atm": "yes", "alt_name": null, "addr_city": "Homagama" }, "geometry": { "type": "Point", "coordinates": [ 80.0053435, 6.8420717 ] } },
{ "type": "Feature", "properties": { "amenity": "bank", "short_name": null, "name": "HNB", "brand": "HNB", "atm": "yes", "alt_name": null, "addr_city": null }, "geometry": { "type": "Point", "coordinates": [ 79.8764807, 6.8805035 ] } },
{ "type": "Feature", "properties": { "amenity": "bank", "short_name": null, "name": "Union Bank", "brand": null, "atm": null, "alt_name": null, "addr_city": "Maharagama" }, "geometry": { "type": "Point", "coordinates": [ 79.9229233, 6.8502264 ] } },
{ "type": "Feature", "properties": { "amenity": "bank", "short_name": null, "name": "BOC - Gothatuwa", "brand": null, "atm": "yes", "alt_name": null, "addr_city": null }, "geometry": { "type": "Point", "coordinates": [ 79.9138242, 6.9226063 ] } },
{ "type": "Feature", "properties": { "amenity": "bank", "short_name": null, "name": "Peoples Bank", "brand": null, "atm": null, "alt_name": null, "addr_city": "Godagama" }, "geometry": { "type": "Point", "coordinates": [ 80.0331261, 6.8519657 ] } },
{ "type": "Feature", "properties": { "amenity": "bank", "short_name": null, "name": "HNB", "brand": null, "atm": "yes", "alt_name": null, "addr_city": "Athurugiriya" }, "geometry": { "type": "Point", "coordinates": [ 79.9908461, 6.8762641 ] } },
{ "type": "Feature", "properties": { "amenity": "bank", "short_name": null, "name": "Pan Asia Bank", "brand": null, "atm": "yes", "alt_name": null, "addr_city": null }, "geometry": { "type": "Point", "coordinates": [ 79.8796001, 6.866174 ] } },
{ "type": "Feature", "properties": { "amenity": "bank", "short_name": null, "name": "PABC", "brand": null, "atm": null, "alt_name": null, "addr_city": "Wattegedara Junction" }, "geometry": { "type": "Point", "coordinates": [ 79.921964, 6.8505562 ] } },
{ "type": "Feature", "properties": { "amenity": "bank", "short_name": null, "name": "DFCC", "brand": null, "atm": null, "alt_name": null, "addr_city": "Maharagama" }, "geometry": { "type": "Point", "coordinates": [ 79.923674, 6.849458 ] } },
{ "type": "Feature", "properties": { "amenity": "bank", "short_name": null, "name": null, "brand": null, "atm": null, "alt_name": null, "addr_city": null }, "geometry": { "type": "Point", "coordinates": [ 79.8904322, 6.8568942 ] } },
{ "type": "Feature", "properties": { "amenity": "bank", "short_name": null, "name": "Commercial Bank of Ceylon", "brand": "Commercial Bank of Ceylon", "atm": "yes", "alt_name": null, "addr_city": null }, "geometry": { "type": "Point", "coordinates": [ 79.8851657, 6.8475915 ] } },
{ "type": "Feature", "properties": { "amenity": "bank", "short_name": null, "name": "DFCC Bank", "brand": null, "atm": "yes", "alt_name": null, "addr_city": null }, "geometry": { "type": "Point", "coordinates": [ 79.8476038, 6.9326826 ] } },
{ "type": "Feature", "properties": { "amenity": "bank", "short_name": null, "name": "Bank of Ceylon", "brand": "Bank of Ceylon", "atm": null, "alt_name": null, "addr_city": "Colombo 01" }, "geometry": { "type": "Point", "coordinates": [ 79.8451068, 6.9351614 ] } },
{ "type": "Feature", "properties": { "amenity": "bank", "short_name": null, "name": "People's Bank Duke Street", "brand": null, "atm": null, "alt_name": null, "addr_city": null }, "geometry": { "type": "Point", "coordinates": [ 79.8462992, 6.9359589 ] } },
{ "type": "Feature", "properties": { "amenity": "bank", "short_name": null, "name": "Nations Trust Bank Rajagiriya", "brand": null, "atm": "yes", "alt_name": null, "addr_city": null }, "geometry": { "type": "Point", "coordinates": [ 79.8976694, 6.9087947 ] } },
{ "type": "Feature", "properties": { "amenity": "bank", "short_name": null, "name": "Seylan Bank", "brand": "Seylan Bank", "atm": null, "alt_name": null, "addr_city": "Wijerama" }, "geometry": { "type": "Point", "coordinates": [ 79.9080341, 6.8585609 ] } },
{ "type": "Feature", "properties": { "amenity": "bank", "short_name": null, "name": "Sampath Bank", "brand": "Sampath Bank", "atm": "yes", "alt_name": null, "addr_city": null }, "geometry": { "type": "Point", "coordinates": [ 79.9784762, 6.9374985 ] } },
{ "type": "Feature", "properties": { "amenity": "bank", "short_name": null, "name": "Sampath Bank", "brand": "Sampath Bank", "atm": "yes", "alt_name": null, "addr_city": "Mattegoda" }, "geometry": { "type": "Point", "coordinates": [ 79.9694666, 6.8195174 ] } },
{ "type": "Feature", "properties": { "amenity": "bank", "short_name": null, "name": "Sampath Bank", "brand": "Sampath Bank", "atm": "yes", "alt_name": null, "addr_city": "Maharagama" }, "geometry": { "type": "Point", "coordinates": [ 79.9335449, 6.844566 ] } },
{ "type": "Feature", "properties": { "amenity": "bank", "short_name": null, "name": "Commercial Bank of Ceylon", "brand": "Commercial Bank of Ceylon", "atm": "yes", "alt_name": null, "addr_city": "Nawinna" }, "geometry": { "type": "Point", "coordinates": [ 79.9176476, 6.8525924 ] } },
{ "type": "Feature", "properties": { "amenity": "bank", "short_name": null, "name": "Sampath Bank", "brand": null, "atm": "yes", "alt_name": null, "addr_city": null }, "geometry": { "type": "Point", "coordinates": [ 79.9136928, 6.9234669 ] } },
{ "type": "Feature", "properties": { "amenity": "bank", "short_name": null, "name": "Seylan Bank", "brand": null, "atm": "yes", "alt_name": null, "addr_city": null }, "geometry": { "type": "Point", "coordinates": [ 79.9137586, 6.9226672 ] } },
{ "type": "Feature", "properties": { "amenity": "bank", "short_name": null, "name": "Sanasa Bank", "brand": null, "atm": null, "alt_name": null, "addr_city": null }, "geometry": { "type": "Point", "coordinates": [ 79.9037897, 6.9294377 ] } },
{ "type": "Feature", "properties": { "amenity": "bank", "short_name": null, "name": "NSB", "brand": null, "atm": null, "alt_name": null, "addr_city": "Boralesgamuwa" }, "geometry": { "type": "Point", "coordinates": [ 79.9028745, 6.841189 ] } },
{ "type": "Feature", "properties": { "amenity": "bank", "short_name": null, "name": "Peoples Bank", "brand": null, "atm": null, "alt_name": null, "addr_city": "Boralesgamuwa" }, "geometry": { "type": "Point", "coordinates": [ 79.9027905, 6.8413374 ] } },
{ "type": "Feature", "properties": { "amenity": "bank", "short_name": null, "name": "Peoples Bank", "brand": null, "atm": "yes", "alt_name": null, "addr_city": null }, "geometry": { "type": "Point", "coordinates": [ 79.9289655, 6.8491083 ] } },
{ "type": "Feature", "properties": { "amenity": "bank", "short_name": null, "name": "Nations Trust Bank", "brand": null, "atm": null, "alt_name": null, "addr_city": "Dehiwala" }, "geometry": { "type": "Point", "coordinates": [ 79.8657487, 6.8542795 ] } },
{ "type": "Feature", "properties": { "amenity": "bank", "short_name": null, "name": "peoples Bank", "brand": null, "atm": null, "alt_name": null, "addr_city": "Dehiwala" }, "geometry": { "type": "Point", "coordinates": [ 79.8639831, 6.8611558 ] } },
{ "type": "Feature", "properties": { "amenity": "bank", "short_name": null, "name": "Sanasa Bank", "brand": null, "atm": null, "alt_name": null, "addr_city": "Boralesgamuwa" }, "geometry": { "type": "Point", "coordinates": [ 79.8997989, 6.8399163 ] } },
{ "type": "Feature", "properties": { "amenity": "bank", "short_name": null, "name": "People's Bank", "brand": null, "atm": "yes", "alt_name": null, "addr_city": "Malabe" }, "geometry": { "type": "Point", "coordinates": [ 79.9562742, 6.9022181 ] } },
{ "type": "Feature", "properties": { "amenity": "bank", "short_name": null, "name": "Commercial Bank of Ceylon PLC", "brand": null, "atm": null, "alt_name": null, "addr_city": "Bokundara" }, "geometry": { "type": "Point", "coordinates": [ 79.9172359, 6.8194327 ] } },
{ "type": "Feature", "properties": { "amenity": "bank", "short_name": null, "name": "Nations Trust Bank", "brand": null, "atm": null, "alt_name": null, "addr_city": "Gothatuwa" }, "geometry": { "type": "Point", "coordinates": [ 79.9138831, 6.9225395 ] } },
{ "type": "Feature", "properties": { "amenity": "bank", "short_name": null, "name": "Nations Trust Bank", "brand": null, "atm": null, "alt_name": null, "addr_city": "Piliyandala" }, "geometry": { "type": "Point", "coordinates": [ 79.9222298, 6.8016589 ] } },
{ "type": "Feature", "properties": { "amenity": "bank", "short_name": null, "name": "Union Bank", "brand": null, "atm": null, "alt_name": null, "addr_city": "Piliyandala" }, "geometry": { "type": "Point", "coordinates": [ 79.9207519, 6.8011981 ] } },
{ "type": "Feature", "properties": { "amenity": "bank", "short_name": null, "name": "Nations Trust Bank", "brand": null, "atm": null, "alt_name": null, "addr_city": null }, "geometry": { "type": "Point", "coordinates": [ 79.8527847, 6.9383981 ] } },
{ "type": "Feature", "properties": { "amenity": "bank", "short_name": null, "name": "Commercial Bank of Ceylon", "brand": "Commercial Bank of Ceylon", "atm": "yes", "alt_name": null, "addr_city": null }, "geometry": { "type": "Point", "coordinates": [ 79.8785169, 6.9393945 ] } },
{ "type": "Feature", "properties": { "amenity": "bank", "short_name": null, "name": "HNB", "brand": "HNB", "atm": "yes", "alt_name": null, "addr_city": null }, "geometry": { "type": "Point", "coordinates": [ 79.8675283, 6.9314627 ] } },
{ "type": "Feature", "properties": { "amenity": "bank", "short_name": null, "name": "HNB", "brand": "HNB", "atm": "yes", "alt_name": null, "addr_city": "Pamankada" }, "geometry": { "type": "Point", "coordinates": [ 79.8696773, 6.8773484 ] } },
{ "type": "Feature", "properties": { "amenity": "bank", "short_name": null, "name": "Standard Charted Bank", "brand": null, "atm": "yes", "alt_name": null, "addr_city": null }, "geometry": { "type": "Point", "coordinates": [ 79.8634815, 6.8647898 ] } },
{ "type": "Feature", "properties": { "amenity": "bank", "short_name": null, "name": "Habib Bank", "brand": null, "atm": null, "alt_name": null, "addr_city": null }, "geometry": { "type": "Point", "coordinates": [ 79.8634117, 6.8652852 ] } },
{ "type": "Feature", "properties": { "amenity": "bank", "short_name": "HNB", "name": "Hatton National Bank", "brand": "Hatton National Bank", "atm": null, "alt_name": null, "addr_city": "Hanwella" }, "geometry": { "type": "Point", "coordinates": [ 80.0806404, 6.9087192 ] } },
{ "type": "Feature", "properties": { "amenity": "bank", "short_name": null, "name": "Peoples Bank", "brand": null, "atm": null, "alt_name": null, "addr_city": "Hanwella" }, "geometry": { "type": "Point", "coordinates": [ 80.0811677, 6.9086516 ] } },
{ "type": "Feature", "properties": { "amenity": "bank", "short_name": null, "name": "CDB", "brand": null, "atm": null, "alt_name": null, "addr_city": "Wattegedara Junction" }, "geometry": { "type": "Point", "coordinates": [ 79.9197323, 6.8517877 ] } },
{ "type": "Feature", "properties": { "amenity": "bank", "short_name": null, "name": "Sampath Bank", "brand": "Sampath Bank", "atm": "yes", "alt_name": null, "addr_city": null }, "geometry": { "type": "Point", "coordinates": [ 79.89196, 6.9108211 ] } },
{ "type": "Feature", "properties": { "amenity": "bank", "short_name": null, "name": "Sampath Bank", "brand": "Sampath Bank", "atm": "yes", "alt_name": null, "addr_city": "Colombo 11" }, "geometry": { "type": "Point", "coordinates": [ 79.8499814, 6.9369648 ] } },
{ "type": "Feature", "properties": { "amenity": "bank", "short_name": null, "name": "NDB", "brand": null, "atm": null, "alt_name": null, "addr_city": "Thimbirigasyaya" }, "geometry": { "type": "Point", "coordinates": [ 79.8644938, 6.8892155 ] } },
{ "type": "Feature", "properties": { "amenity": "bank", "short_name": null, "name": "NDB Bank", "brand": null, "atm": "yes", "alt_name": null, "addr_city": "Ethul Kotte" }, "geometry": { "type": "Point", "coordinates": [ 79.904468, 6.9062196 ] } },
{ "type": "Feature", "properties": { "amenity": "bank", "short_name": null, "name": "Commercial Bank of Ceylon", "brand": "Commercial Bank of Ceylon", "atm": "yes", "alt_name": null, "addr_city": null }, "geometry": { "type": "Point", "coordinates": [ 79.8869811, 6.7936471 ] } },
{ "type": "Feature", "properties": { "amenity": "bank", "short_name": null, "name": "Commercial Bank of Ceylon", "brand": "Commercial Bank of Ceylon", "atm": "yes", "alt_name": null, "addr_city": null }, "geometry": { "type": "Point", "coordinates": [ 79.8669923, 6.9618906 ] } },
{ "type": "Feature", "properties": { "amenity": "bank", "short_name": null, "name": "Nations Trust Bank", "brand": null, "atm": "yes", "alt_name": null, "addr_city": "Colombo" }, "geometry": { "type": "Point", "coordinates": [ 79.858655, 6.9525488 ] } },
{ "type": "Feature", "properties": { "amenity": "bank", "short_name": null, "name": "Sanasa Development Bank", "brand": null, "atm": null, "alt_name": null, "addr_city": "Kirulapone" }, "geometry": { "type": "Point", "coordinates": [ 79.8765898, 6.8793562 ] } },
{ "type": "Feature", "properties": { "amenity": "bank", "short_name": null, "name": "Commercial Bank of Ceylon", "brand": "Commercial Bank of Ceylon", "atm": "yes", "alt_name": null, "addr_city": null }, "geometry": { "type": "Point", "coordinates": [ 79.8653728, 6.876712 ] } },
{ "type": "Feature", "properties": { "amenity": "bank", "short_name": null, "name": "NDB Bank Malabe", "brand": null, "atm": "yes", "alt_name": null, "addr_city": "Malabe" }, "geometry": { "type": "Point", "coordinates": [ 79.9534278, 6.904366 ] } },
{ "type": "Feature", "properties": { "amenity": "bank", "short_name": null, "name": "Bank of Ceylon", "brand": "Bank of Ceylon", "atm": null, "alt_name": null, "addr_city": null }, "geometry": { "type": "Point", "coordinates": [ 79.8659759, 6.852549 ] } },
{ "type": "Feature", "properties": { "amenity": "bank", "short_name": null, "name": "Cargills Bank - Old moor st", "brand": null, "atm": "no", "alt_name": null, "addr_city": "Colombo" }, "geometry": { "type": "Point", "coordinates": [ 79.8610849, 6.9395331 ] } },
{ "type": "Feature", "properties": { "amenity": "bank", "short_name": null, "name": "Cargills Bank - Maitland Cresent", "brand": null, "atm": "yes", "alt_name": null, "addr_city": "Colombo 07" }, "geometry": { "type": "Point", "coordinates": [ 79.8657219, 6.9092197 ] } },
{ "type": "Feature", "properties": { "amenity": "bank", "short_name": null, "name": "Cargills Bank - Head Office", "brand": null, "atm": null, "alt_name": null, "addr_city": "Colombo 03" }, "geometry": { "type": "Point", "coordinates": [ 79.8541014, 6.8972152 ] } },
{ "type": "Feature", "properties": { "amenity": "bank", "short_name": null, "name": "Sampath Bank", "brand": "Sampath Bank", "atm": "yes", "alt_name": null, "addr_city": "Borella" }, "geometry": { "type": "Point", "coordinates": [ 79.8805259, 6.9110849 ] } },
{ "type": "Feature", "properties": { "amenity": "bank", "short_name": null, "name": "Nations Trust bank", "brand": null, "atm": "yes", "alt_name": null, "addr_city": "Colombo 01" }, "geometry": { "type": "Point", "coordinates": [ 79.844663, 6.9345356 ] } },
{ "type": "Feature", "properties": { "amenity": "bank", "short_name": null, "name": "Peoples Bank", "brand": null, "atm": "yes", "alt_name": null, "addr_city": "Colombo 01" }, "geometry": { "type": "Point", "coordinates": [ 79.8446845, 6.934682 ] } },
{ "type": "Feature", "properties": { "amenity": "bank", "short_name": null, "name": null, "brand": null, "atm": null, "alt_name": null, "addr_city": null }, "geometry": { "type": "Point", "coordinates": [ 79.8630323, 6.961743 ] } },
{ "type": "Feature", "properties": { "amenity": "bank", "short_name": null, "name": null, "brand": null, "atm": null, "alt_name": null, "addr_city": null }, "geometry": { "type": "Point", "coordinates": [ 79.8681145, 6.9604226 ] } },
{ "type": "Feature", "properties": { "amenity": "bank", "short_name": null, "name": "Rural Bank", "brand": null, "atm": null, "alt_name": null, "addr_city": "Siddamulla" }, "geometry": { "type": "Point", "coordinates": [ 79.9573138, 6.8135182 ] } },
{ "type": "Feature", "properties": { "amenity": "bank", "short_name": null, "name": "Bank of Ceylon", "brand": "Bank of Ceylon", "atm": "yes", "alt_name": null, "addr_city": "Colombo 10" }, "geometry": { "type": "Point", "coordinates": [ 79.8617527, 6.9197864 ] } },
{ "type": "Feature", "properties": { "amenity": "bank", "short_name": null, "name": "Selyan Bank", "brand": null, "atm": "yes", "alt_name": null, "addr_city": "Godagama" }, "geometry": { "type": "Point", "coordinates": [ 80.0300346, 6.8510426 ] } },
{ "type": "Feature", "properties": { "amenity": "bank", "short_name": null, "name": "Sanasa Bank", "brand": null, "atm": null, "alt_name": null, "addr_city": null }, "geometry": { "type": "Point", "coordinates": [ 80.0241387, 6.8644782 ] } },
{ "type": "Feature", "properties": { "amenity": "bank", "short_name": null, "name": "Sanasa Development Bank", "brand": null, "atm": null, "alt_name": null, "addr_city": null }, "geometry": { "type": "Point", "coordinates": [ 79.919958, 6.9023055 ] } },
{ "type": "Feature", "properties": { "amenity": "bank", "short_name": null, "name": "Habarakada Rural Bank", "brand": null, "atm": null, "alt_name": null, "addr_city": null }, "geometry": { "type": "Point", "coordinates": [ 80.0126318, 6.8654016 ] } },
{ "type": "Feature", "properties": { "amenity": "bank", "short_name": null, "name": "DFCC Wardhana Bank", "brand": null, "atm": null, "alt_name": null, "addr_city": null }, "geometry": { "type": "Point", "coordinates": [ 79.8941773, 6.9036492 ] } },
{ "type": "Feature", "properties": { "amenity": "bank", "short_name": null, "name": "Bank of Ceylon", "brand": "Bank of Ceylon", "atm": "yes", "alt_name": null, "addr_city": "Borella" }, "geometry": { "type": "Point", "coordinates": [ 79.8777549, 6.9144221 ] } },
{ "type": "Feature", "properties": { "amenity": "bank", "short_name": null, "name": "NSB", "brand": "NSB", "atm": "yes", "alt_name": null, "addr_city": "Colombo 01" }, "geometry": { "type": "Point", "coordinates": [ 79.8437733, 6.9344503 ] } },
{ "type": "Feature", "properties": { "amenity": "bank", "short_name": null, "name": "NSB", "brand": "NSB", "atm": null, "alt_name": null, "addr_city": "Kaduwela" }, "geometry": { "type": "Point", "coordinates": [ 79.9811809, 6.9368648 ] } },
{ "type": "Feature", "properties": { "amenity": "bank", "short_name": null, "name": "NDB Bank", "brand": null, "atm": null, "alt_name": null, "addr_city": null }, "geometry": { "type": "Point", "coordinates": [ 79.8787416, 6.9142376 ] } },
{ "type": "Feature", "properties": { "amenity": "bank", "short_name": null, "name": "Bank of Ceylon", "brand": "Bank of Ceylon", "atm": null, "alt_name": null, "addr_city": null }, "geometry": { "type": "Point", "coordinates": [ 79.9013279, 6.8839248 ] } },
{ "type": "Feature", "properties": { "amenity": "bank", "short_name": null, "name": "NDB Bankbankb", "brand": null, "atm": null, "alt_name": null, "addr_city": null }, "geometry": { "type": "Point", "coordinates": [ 79.9149723, 6.902288 ] } },
{ "type": "Feature", "properties": { "amenity": "bank", "short_name": null, "name": "NSB", "brand": "NSB", "atm": "yes", "alt_name": null, "addr_city": null }, "geometry": { "type": "Point", "coordinates": [ 79.9369594, 6.8741872 ] } },
{ "type": "Feature", "properties": { "amenity": "bank", "short_name": null, "name": null, "brand": null, "atm": null, "alt_name": null, "addr_city": null }, "geometry": { "type": "Point", "coordinates": [ 79.9058578, 6.9001116 ] } },
{ "type": "Feature", "properties": { "amenity": "bank", "short_name": null, "name": "Nations Trust Bank", "brand": null, "atm": null, "alt_name": null, "addr_city": "Kohuwala" }, "geometry": { "type": "Point", "coordinates": [ 79.8806766, 6.8695975 ] } },
{ "type": "Feature", "properties": { "amenity": "bank", "short_name": null, "name": "Sampath Bank", "brand": "Sampath Bank", "atm": "yes", "alt_name": null, "addr_city": "Colombo 01" }, "geometry": { "type": "Point", "coordinates": [ 79.8443363, 6.9343585 ] } },
{ "type": "Feature", "properties": { "amenity": "bank", "short_name": null, "name": "Commercial Bank of Ceylon", "brand": "Commercial Bank of Ceylon", "atm": null, "alt_name": null, "addr_city": null }, "geometry": { "type": "Point", "coordinates": [ 79.9290874, 6.8917513 ] } },
{ "type": "Feature", "properties": { "amenity": "bank", "short_name": null, "name": "Commercial Bank of Ceylon", "brand": "Commercial Bank of Ceylon", "atm": "yes", "alt_name": null, "addr_city": "Malabe" }, "geometry": { "type": "Point", "coordinates": [ 79.9519176, 6.9048176 ] } },
{ "type": "Feature", "properties": { "amenity": "bank", "short_name": null, "name": "NDB", "brand": null, "atm": null, "alt_name": null, "addr_city": "Mount Lavinia" }, "geometry": { "type": "Point", "coordinates": [ 79.8677045, 6.8367957 ] } },
{ "type": "Feature", "properties": { "amenity": "bank", "short_name": null, "name": "Sampath Bank", "brand": "Sampath Bank", "atm": null, "alt_name": null, "addr_city": null }, "geometry": { "type": "Point", "coordinates": [ 79.8671491, 6.835413 ] } },
{ "type": "Feature", "properties": { "amenity": "bank", "short_name": null, "name": null, "brand": null, "atm": null, "alt_name": null, "addr_city": null }, "geometry": { "type": "Point", "coordinates": [ 79.8672245, 6.8337922 ] } },
{ "type": "Feature", "properties": { "amenity": "bank", "short_name": null, "name": "Bank of Ceylon", "brand": "Bank of Ceylon", "atm": "yes", "alt_name": null, "addr_city": "Colombo 07" }, "geometry": { "type": "Point", "coordinates": [ 79.8693011, 6.9029418 ] } },
{ "type": "Feature", "properties": { "amenity": "bank", "short_name": null, "name": "Union Bank Head Quarters", "brand": null, "atm": null, "alt_name": null, "addr_city": null }, "geometry": { "type": "Point", "coordinates": [ 79.8470824, 6.9184534 ] } },
{ "type": "Feature", "properties": { "amenity": "bank", "short_name": null, "name": "Nations Trust Bank", "brand": null, "atm": null, "alt_name": null, "addr_city": null }, "geometry": { "type": "Point", "coordinates": [ 79.8526402, 6.9083371 ] } },
{ "type": "Feature", "properties": { "amenity": "bank", "short_name": null, "name": "Peoples Bank Hokandara", "brand": null, "atm": "yes", "alt_name": null, "addr_city": null }, "geometry": { "type": "Point", "coordinates": [ 79.959858, 6.880571 ] } },
{ "type": "Feature", "properties": { "amenity": "bank", "short_name": null, "name": "NSB", "brand": "NSB", "atm": null, "alt_name": null, "addr_city": null }, "geometry": { "type": "Point", "coordinates": [ 80.0003232, 6.840935 ] } },
{ "type": "Feature", "properties": { "amenity": "bank", "short_name": null, "name": "Nations Trust Bank", "brand": null, "atm": null, "alt_name": null, "addr_city": null }, "geometry": { "type": "Point", "coordinates": [ 79.876159, 6.8930116 ] } },
{ "type": "Feature", "properties": { "amenity": "bank", "short_name": null, "name": "NSB", "brand": "NSB", "atm": null, "alt_name": null, "addr_city": null }, "geometry": { "type": "Point", "coordinates": [ 79.8762079, 6.8927033 ] } },
{ "type": "Feature", "properties": { "amenity": "bank", "short_name": null, "name": "Pan Asia Bank", "brand": null, "atm": null, "alt_name": null, "addr_city": null }, "geometry": { "type": "Point", "coordinates": [ 79.8648128, 6.8569827 ] } },
{ "type": "Feature", "properties": { "amenity": "bank", "short_name": null, "name": null, "brand": null, "atm": null, "alt_name": null, "addr_city": null }, "geometry": { "type": "Point", "coordinates": [ 79.8671766, 6.835776 ] } },
{ "type": "Feature", "properties": { "amenity": "bank", "short_name": null, "name": "Peoples Bank", "brand": null, "atm": null, "alt_name": null, "addr_city": "Kahahena" }, "geometry": { "type": "Point", "coordinates": [ 80.127739, 6.9009097 ] } },
{ "type": "Feature", "properties": { "amenity": "bank", "short_name": null, "name": "Merchant Bank of Sri Lanka", "brand": null, "atm": "yes", "alt_name": null, "addr_city": "Union Place" }, "geometry": { "type": "Point", "coordinates": [ 79.8619126, 6.9193194 ] } },
{ "type": "Feature", "properties": { "amenity": "bank", "short_name": null, "name": "Commercial Bank of Ceylon", "brand": "Commercial Bank of Ceylon", "atm": null, "alt_name": null, "addr_city": null }, "geometry": { "type": "Point", "coordinates": [ 79.8845307, 6.8402815 ] } },
{ "type": "Feature", "properties": { "amenity": "bank", "short_name": null, "name": "Sampath Bank", "brand": "Sampath Bank", "atm": null, "alt_name": null, "addr_city": null }, "geometry": { "type": "Point", "coordinates": [ 79.8849437, 6.8381732 ] } },
{ "type": "Feature", "properties": { "amenity": "bank", "short_name": null, "name": "Sampath Bank", "brand": "Sampath Bank", "atm": "yes", "alt_name": null, "addr_city": null }, "geometry": { "type": "Point", "coordinates": [ 79.949526, 6.84608 ] } },
{ "type": "Feature", "properties": { "amenity": "bank", "short_name": null, "name": "Bank of Ceylon", "brand": "Bank of Ceylon", "atm": null, "alt_name": null, "addr_city": null }, "geometry": { "type": "Point", "coordinates": [ 79.8561063, 6.914614 ] } },
{ "type": "Feature", "properties": { "amenity": "bank", "short_name": null, "name": "Bank of Ceylon", "brand": "Bank of Ceylon", "atm": "yes", "alt_name": null, "addr_city": "Colombo 11" }, "geometry": { "type": "Point", "coordinates": [ 79.8480343, 6.9352582 ] } },
{ "type": "Feature", "properties": { "amenity": "bank", "short_name": null, "name": "Peoples Bank", "brand": null, "atm": "yes", "alt_name": null, "addr_city": "Colombo 11" }, "geometry": { "type": "Point", "coordinates": [ 79.8480423, 6.9351763 ] } },
{ "type": "Feature", "properties": { "amenity": "bank", "short_name": null, "name": "HDFC Bank", "brand": null, "atm": "yes", "alt_name": null, "addr_city": "Malabe" }, "geometry": { "type": "Point", "coordinates": [ 79.9533029, 6.9047261 ] } },
{ "type": "Feature", "properties": { "amenity": "bank", "short_name": null, "name": "Sampath Bank", "brand": "Sampath Bank", "atm": "yes", "alt_name": null, "addr_city": "Wijerama" }, "geometry": { "type": "Point", "coordinates": [ 79.906689, 6.8614937 ] } },
{ "type": "Feature", "properties": { "amenity": "bank", "short_name": null, "name": "HNB", "brand": "HNB", "atm": null, "alt_name": null, "addr_city": "Nugegoda" }, "geometry": { "type": "Point", "coordinates": [ 79.8918214, 6.8682647 ] } },
{ "type": "Feature", "properties": { "amenity": "bank", "short_name": null, "name": "Sanasa Development Bank", "brand": null, "atm": null, "alt_name": null, "addr_city": "Malabe" }, "geometry": { "type": "Point", "coordinates": [ 79.9560242, 6.9022635 ] } },
{ "type": "Feature", "properties": { "amenity": "bank", "short_name": null, "name": "Bank of Ceylon", "brand": "Bank of Ceylon", "atm": "yes", "alt_name": null, "addr_city": "Kesbewa" }, "geometry": { "type": "Point", "coordinates": [ 79.9404823, 6.7947707 ] } },
{ "type": "Feature", "properties": { "amenity": "bank", "short_name": null, "name": "Sampath Bank", "brand": "Sampath Bank", "atm": "yes", "alt_name": null, "addr_city": "Kesbewa" }, "geometry": { "type": "Point", "coordinates": [ 79.9405522, 6.793933 ] } },
{ "type": "Feature", "properties": { "amenity": "bank", "short_name": null, "name": "Bank of Ceylon", "brand": "Bank of Ceylon", "atm": null, "alt_name": null, "addr_city": null }, "geometry": { "type": "Point", "coordinates": [ 79.8587081, 6.8837967 ] } },
{ "type": "Feature", "properties": { "amenity": "bank", "short_name": null, "name": "People's Bank", "brand": null, "atm": null, "alt_name": null, "addr_city": null }, "geometry": { "type": "Point", "coordinates": [ 79.9129766, 6.9234196 ] } },
{ "type": "Feature", "properties": { "amenity": "bank", "short_name": null, "name": "CDB Bank", "brand": null, "atm": null, "alt_name": null, "addr_city": null }, "geometry": { "type": "Point", "coordinates": [ 79.9530459, 6.9048081 ] } },
{ "type": "Feature", "properties": { "amenity": "bank", "short_name": null, "name": "Peoples Bank", "brand": null, "atm": null, "alt_name": null, "addr_city": null }, "geometry": { "type": "Point", "coordinates": [ 80.0193436, 6.9240863 ] } },